,STOP_ID,STOP_NAME,ROUTEUSSP
0,18208,7-Flagstaff Railway Station/William St (Melbourne City),58
1,18210,5-Bourke St/William St (Melbourne City),58
2,18211,4-Collins St/William St (Melbourne City),58
3,18214,1-Flinders St/Queens Bridge St (Melbourne City),58
4,18215,115-Casino/Southbank/Queens Bridge St (Southbank),58
5,18217,117-York St/Kings Way (South Melbourne),58
6,18218,118-Sturt St/Kings Way (Southbank),58
7,18219,119-Wells St/Park St (South Melbourne),58
8,18221,119-Wells St/Park St (South Melbourne),58
9,18222,118-Sturt St/Kings Way (Southbank),58
10,18223,117-York St/Kings Way (South Melbourne),58
11,18224,20-Kings Way/Sturt St (Southbank),1
12,18225,19-Miles St/Sturt St (Southbank),1
13,18226,18-Grant St/Sturt St (Southbank),1
14,18227,17-Southbank Bvd/Sturt St (Southbank),1
15,18229,17-Southbank Bvd/Sturt St (Southbank),1
16,18230,18-Grant St/Sturt St (Southbank),1
17,18231,19-Miles St/Sturt St (Southbank),1
18,18232,20-Kings Way/Sturt St (Southbank),1
19,18233,116-City Rd/Kings Way (Southbank),58
20,18341,24-Grattan St/Church St (Hawthorn),48
21,18342,25-Brook St/Church St (Hawthorn),48
22,18343,26-Barkers Rd/Church St (Hawthorn),48
23,18347,34-Pakington St/High St (Kew),48
24,18348,35-Cobden St/High St (Kew),48
25,18349,36-Parkhill Rd/High St (Kew),48
26,18350,37-Kew Cemetery/High St (Kew),48
27,18351,38-Victoria Park/High St (Kew),48
28,18352,39-Harp Rd/High St (Kew),48
29,18353,40-Harp Village/High St (Kew East),48
30,18354,41-Clyde St/High St (Kew East),48
31,18355,42-Irymple Ave/High St (Kew East),48
32,18356,43-Kew High School/High St (Kew East),48
33,18357,44-Burke Rd/High St (Kew),48
34,18358,45-Burke Rd/Doncaster Rd (Balwyn North),48
35,18359,46-Wattle Ave/Doncaster Rd (Balwyn North),48
36,18360,47-North Balwyn Shopping Centre/Doncaster Rd (Balwyn North),48
37,18361,48-Sunburst Ave/Doncaster Rd (Balwyn North),48
38,18362,49-Cityview Rd/Doncaster Rd (Balwyn North),48
39,18363,50-Hill Rd/Doncaster Rd (Balwyn North),48
40,18364,36-St Kilda Primary School/Brighton Rd (Elwood),67
41,18365,38-Wimbledon Ave/Brighton Rd (Elwood),67
42,18367,39-Glen Eira Rd/Brighton Rd (Elwood),67
43,18368,40-Scott St/Brighton Rd (Elwood),67
44,18369,41-Coleridge St/Brighton Rd (Elwood),67
45,18370,42-Hotham St/Brighton Rd (St Kilda East),67
46,18371,43-Brighton Rd/Glenhuntly Rd (Elsternwick),67
47,18372,44-Elsternwick Railway Station/Glenhuntly Rd (Elsternwick),67
48,18373,45-Elsternwick Shopping Centre/Glenhuntly Rd (Elsternwick),67
49,18374,46-Orrong Rd/Glenhuntly Rd (Elsternwick),67
50,18375,47-Shoobra Rd/Glenhuntly Rd (Elsternwick),67
51,18376,48-Parkside St/Glenhuntly Rd (Elsternwick),67
52,18392,49-Kooyong Rd/Glenhuntly Rd (Elsternwick),67
53,18393,50-Royal Pde/Glenhuntly Rd (Caulfield),67
54,18394,51-Hawthorn Rd/Glenhuntly Rd (Caulfield),67
55,18395,52-Jasmine St/Glenhuntly Rd (Caulfield),67
56,18396,53-Glenhuntly Tram Depot/Glenhuntly Rd (Caulfield),67
57,18397,54-Bambra Rd/Glenhuntly Rd (Caulfield),67
58,18398,55-Fallon St/Glenhuntly Rd (Caulfield),67
59,18399,56-Kean St/Glenhuntly Rd (Caulfield),67
60,18400,57-Laura St/Glenhuntly Rd (Caulfield),67
61,18401,58-Booran Rd/Glenhuntly Rd (Caulfield),67
62,18403,60-Glenhuntly Shops/Glenhuntly Rd (Glen Huntly),67
63,18404,61-Glenhuntly Railway Station/Glenhuntly Rd (Glen Huntly),67
64,18405,62-Grange Rd/Glenhuntly Rd (Glen Huntly),67
65,18406,63-Maroona Rd/Glenhuntly Rd (Carnegie),67
66,18407,64-Mernda Ave/Glenhuntly Rd (Carnegie),67
67,18408,65-Mimosa Rd/Glenhuntly Rd (Carnegie),67
68,18409,66-Glenhuntly Rd/Truganini Rd (Carnegie),67
69,18410,67-Centre Rd/Truganini Rd (Carnegie),67
70,18411,68-Carnegie/Truganini Rd (Carnegie),67
71,18412,68-East Brighton/Hawthorn Rd (Brighton East),64
72,18413,67-Howell St/Hawthorn Rd (Brighton East),64
73,18414,66-Union St/Hawthorn Rd (Brighton East),64
74,18415,65-Davey Ave/Hawthorn Rd (Brighton East),64
75,18416,64-Taylor St/Hawthorn Rd (Brighton East),64
76,18417,63-North Rd/Hawthorn Rd (Brighton East),64
77,18418,62-Gardenvale Rd/Hawthorn Rd (Caulfield South),64
78,18419,61-Raynes St/Hawthorn Rd (Caulfield South),64
79,18420,60-Dover St/Hawthorn Rd (Caulfield South),64
80,18421,59-Princes Park/Hawthorn Rd (Caulfield South),64
81,18422,58-Sycamore St/Hawthorn Rd (Caulfield South),64
82,18423,57-Glenhuntly Rd/Hawthorn Rd (Caulfield South),64
83,18424,56-Lockhart St/Hawthorn Rd (Caulfield),64
84,18425,55-Sylverly Gr/Hawthorn Rd (Caulfield),64
85,18426,54-Glen Eira Rd/Hawthorn Rd (Caulfield),64
86,18427,53-Crotonhurst Ave/Hawthorn Rd (Caulfield North),64
87,18428,52-Halstead St/Hawthorn Rd (Caulfield North),64
88,18429,51-Balaclava Rd/Hawthorn Rd (Caulfield North),64
89,18430,50-Inkerman Rd/Hawthorn Rd (Caulfield North),"64,16"
90,18431,49-Wanda Rd/Hawthorn Rd (Caulfield North),"64,16"
91,18432,48A-Dandenong Rd/Hawthorn Rd (Caulfield North),"64,16"
92,18437,44-Bailey Ave/Dandenong Rd (Armadale),64
93,18438,43-Matlock Ct/Dandenong Rd (Armadale),64
94,18439,42-Kooyong Rd/Dandenong Rd (Armadale),64
95,18440,41-Cantala Ave/Dandenong Rd (Armadale),64
96,18441,40-Wattletree Rd/Dandenong Rd (Armadale),"64,5"
97,18443,38-Orrong Rd/Dandenong Rd (Armadale),"64,5"
98,18444,37-Lansdowne Rd/Dandenong Rd (Prahran),"64,5"
99,18445,36-Alexandra St/Dandenong Rd (Prahran),"64,5"
100,18446,35-Williams Rd/Dandenong Rd (Prahran),"64,5"
101,18447,34-Westbury St/Dandenong Rd (St Kilda East),"64,5"
102,18448,33-Hornby St/Dandenong Rd (Windsor),"64,5"
103,18449,32-Chapel St/Dandenong Rd (Windsor),"64,5"
104,18450,115-Casino East/Queens Bridge St (Southbank),58
105,18451,64-Darling Rd/Waverley Rd (Malvern East),3/3a
106,18452,63-Hughes St/Waverley Rd (Malvern East),3/3a
107,18453,62-Macgregor St/Waverley Rd (Malvern East),3/3a
108,18454,61-Tennyson St/Waverley Rd (Malvern East),3/3a
109,18455,60-Burke Rd/Waverley Rd (Malvern East),3/3a
110,18456,59-Dandenong Rd/Waverley Rd (Caulfield East),3/3a
111,18457,57-Caulfield Railway Station/Derby Rd (Caulfield East),3/3a
112,18459,56-Caulfield Racecourse/Normanby Rd (Caulfield East),3/3a
113,18460,55-Balaclava Rd/Normanby Rd (Caulfield East),3/3a
114,18461,54-Kambrook Rd/Balaclava Rd (Caulfield East),3/3a
115,18462,53-Caulfield Park/Balaclava Rd (Caulfield North),3/3a
116,18463,52-Caulfield Park Bowling Club/Balaclava Rd (Caulfield North),3/3a
117,18464,51-Hawthorn Rd/Balaclava Rd (Caulfield North),3/3a
118,18465,1-Flinders St/Queens Bridge St (Melbourne City),58
119,18466,2-Flinders Lane/Market St (Melbourne City),58
120,18467,3-William St/Flinders Lane (Melbourne City),58
121,18468,47-Caulfield Junior College/Balaclava Rd (Caulfield North),"3/3a,16"
122,18469,4-Collins St/William St (Melbourne City),58
123,18479,50-Wharton St/Whitehorse Rd (Surrey Hills),109
124,18481,22-Dorcas St/Eastern Rd (South Melbourne),1
125,18482,23-Moray St/Park St (South Melbourne),1
126,18483,24-Clarendon St/Park St (South Melbourne),1
127,18484,25-Cecil St/Park St (South Melbourne),1
128,18485,41-Maribyrnong Park/Maribyrnong Rd (Ascot Vale),"82,57"
129,18486,42-Clyde St/Raleigh Rd (Maribyrnong),"82,57"
130,18487,43-Van Ness Ave/Raleigh Rd (Maribyrnong),"82,57"
131,18488,44-Warrs Rd/Raleigh Rd (Maribyrnong),"82,57"
132,18489,45-Maribyrnong Community Centre/Raleigh Rd (Maribyrnong),"82,57"
133,18490,46-Rosamond Rd/Raleigh Rd (Maribyrnong),"82,57"
134,18491,48-Wests Rd/Raleigh Rd (Maribyrnong),"82,57"
135,18492,49-Highpoint Shopping Centre/Wests Rd (Maribyrnong),82
136,18493,50-Williamson Rd/Wests Rd (Maribyrnong),82
137,18494,51-Williamson Rd/Rosamond Rd (Maidstone),82
138,18495,52-River St/Rosamond Rd (Maribyrnong),82
139,18496,53-Maribyrnong College/River St (Maribyrnong),82
140,18497,54-Gordon St/River St (Maribyrnong),82
141,18498,55-Lyric St/Gordon St (Maribyrnong),82
142,18499,56-Edgewater Square/Gordon St (Maribyrnong),82
143,18500,57-Titch St/Gordon St (Footscray),82
144,18501,58-Ballarat Rd/Gordon St (Footscray),82
145,18505,59-Droop St/Ballarat Rd (Footscray),82
146,18506,60-Tiernan St/Droop St (Footscray),82
147,18507,61-Geelong Rd/Droop St (Footscray),82
148,18508,62-Nicholson St/Droop St (Footscray),82
149,18509,63-Leeds St/Hopkins St (Footscray),82
150,18511,33-Chaucer St/Ascot Vale Rd (Moonee Ponds),82
151,20549,64-Power St/Glenferrie Rd (Kooyong),16
152,20550,65-Warra St/Glenferrie Rd (Toorak),16
153,20551,65-Kooyong Railway Station/Glenferrie Rd (Kooyong),16
154,20552,66-Kooyong Tennis Centre/Glenferrie Rd (Toorak),16
155,20553,66-Vision Australia/Glenferrie Rd (Kooyong),16
156,20554,67-Gardiner Rd/Glenferrie Rd (Hawthorn),16
157,20555,67-Gardiner Rd/Glenferrie Rd (Hawthorn),16
158,20556,68-Callantina Rd/Glenferrie Rd (Hawthorn),16
159,1185,50-Vincent St/Wattletree Rd (Malvern East),5
160,12599,42-Kooyong Rd/Wattletree Rd (Armadale),5
161,1291,51-Erica Ave/Wattletree Rd (Malvern East),5
162,1292,38-Renown St/Sydney Rd (Coburg),19
163,13401,28-Punt Rd/High St (Prahran),6
164,13995,44-Barb St/Raleigh Rd (Maribyrnong),"82,57"
165,14033,29-Perth St/High St (Prahran),6
166,14614,30-Prahran Station/High St (Prahran),6
167,14728,31-Chapel St/High St (Prahran),6
168,15559,45-Randall St/Raleigh Rd (Maribyrnong),"82,57"
169,15699,32-Hornby St/High St (Prahran),6
170,1575,52-Burke Rd/Wattletree Rd (Malvern East),5
171,16610,33-The Avenue/High St (Prahran),6
172,16713,34-Bell St/Sydney Rd (Coburg),19
173,16714,33-Coburg Market/Sydney Rd (Coburg),19
174,16715,32-Munro St/Sydney Rd (Coburg),19
175,16716,31-Reynard St/Sydney Rd (Coburg),19
176,16717,30-The Avenue/Sydney Rd (Coburg),19
177,16718,34-Lewisham Rd/High St (Prahran),6
178,16719,28-Moreland Rd/Sydney Rd (Brunswick),19
179,16720,27-Brunswick Tram Depot/Sydney Rd (Brunswick),19
180,16721,26-Albion St/Sydney Rd (Brunswick),19
181,16722,25-Stewart St/Sydney Rd (Brunswick),19
182,16723,24-Brunswick Baptist Church/Sydney Rd (Brunswick),19
183,16724,23-Victoria St/Sydney Rd (Brunswick),19
184,16725,22-Albert St/Sydney Rd (Brunswick),19
185,16726,21-Brunswick Town Hall/Sydney Rd (Brunswick),19
186,16727,20-Barkly Square/115 Sydney Rd (Brunswick),19
187,16728,19-Brunswick Rd/Sydney Rd (Brunswick),19
188,16729,18-Princes Park/Royal Pde (Parkville),19
189,16730,17-Ievers St/Royal Pde (Parkville),19
190,16731,16-Visy Park/Royal Pde (Parkville),19
191,16732,15-Leonard St/Royal Pde (Parkville),19
192,16733,14-Macarthur Rd/Royal Pde (Parkville),19
193,16734,13-Gatehouse St/Royal Pde (Parkville),19
194,16735,12-Morrah St/Royal Pde (Parkville),19
195,16736,11-University of Melbourne/Royal Pde (Parkville),19
196,16738,35-Williams Rd/High St (Prahran),6
197,16739,36-Chatsworth Rd/High St (Prahran),6
198,16740,37-Airlie Ave/High St (Prahran),6
199,16741,38-Orrong Rd/High St (Prahran),6
200,16742,39-Auburn Gr/High St (Armadale),6
201,16743,40-Armadale Station/High St (Armadale),6
202,16744,41-Kooyong Rd/High St (Armadale),6
203,16745,42-Huntingtower Rd/High St (Armadale),6
204,16746,43-Mercer Rd/High St (Armadale),6
205,16747,44-Glenferrie Rd/High St (Malvern),6
206,16748,45-De La Salle College/High St (Malvern),6
207,16749,46-Fraser St/High St (Malvern),6
208,16750,47-Dixon St/High St (Malvern),6
209,16751,48-Tooronga Rd/High St (Glen Iris),6
210,16752,49-Harold Holt Swim Centre/High St (Glen Iris),6
211,16753,50-Belmont Ave/High St (Glen Iris),6
212,16754,51-Burke Rd/High St (Glen Iris),6
213,16755,52-Boyanda Rd/High St (Glen Iris),6
214,16757,53-Malvern Rd/High St (Glen Iris),6
215,16758,52-Boyanda Rd/High St (Glen Iris),6
216,16759,51-Burke Rd/High St (Glen Iris),6
217,16760,50-Belmont Ave/High St (Glen Iris),6
218,16761,49-Harold Holt Swim Centre/High St (Glen Iris),6
219,16762,48-Tooronga Rd/High St (Glen Iris),6
220,16764,47-Dixon St/High St (Malvern),6
221,16765,46-Fraser St/High St (Malvern),6
222,16766,45-De La Salle College/High St (Malvern),6
223,16767,44-Glenferrie Rd/High St (Malvern),6
224,16768,43-Mercer Rd/High St (Armadale),6
225,16769,42-Huntingtower Rd/High St (Armadale),6
226,16770,41-Kooyong Rd/High St (Armadale),6
227,16771,40-Armadale Station/High St (Armadale),6
228,16772,39-Auburn Gr/High St (Armadale),6
229,16773,38-Orrong Rd/High St (Armadale),6
230,16774,37-Airlie Ave/High St (Prahran),6
231,16775,36-Chatsworth Rd/High St (Prahran),6
232,16776,35-Williams Rd/High St (Prahran),6
233,16777,34-Lewisham Rd/High St (Prahran),6
234,16778,33-The Avenue/High St (Prahran),6
235,1696,51-Nott St/Wattletree Rd (Malvern East),5
236,17306,40-North Coburg Terminus/Sydney Rd (Coburg North),19
237,17307,39-Mercy College/Sydney Rd (Coburg North),19
238,17308,38-Carr St/Sydney Rd (Coburg North),19
239,17309,37-Gaffney St/Sydney Rd (Coburg North),19
240,17310,36-Rogers St/Sydney Rd (Coburg),19
241,17311,35-St Pauls Catholic Church/Sydney Rd (Coburg),19
242,17312,34-Bell St/Sydney Rd (Coburg),19
243,17313,33-Coburg Market/Sydney Rd (Coburg),19
244,17314,32-Harding St/Sydney Rd (Coburg),19
245,17315,31-Edward St/Sydney Rd (Coburg),19
246,17316,30-The Avenue/Sydney Rd (Coburg),19
247,17317,29-Moore St/Sydney Rd (Coburg),19
248,17318,28-Moreland Rd/Sydney Rd (Coburg),19
249,17319,27-Brunswick Tram Depot/Sydney Rd (Brunswick),19
250,17320,26-Albion St/Sydney Rd (Brunswick),19
251,17321,25-Stewart St/Sydney Rd (Brunswick),19
252,17322,24-Blyth St/Sydney Rd (Brunswick),19
253,17323,23-Victoria St/Sydney Rd (Brunswick),19
254,17324,22-Albert St/Sydney Rd (Brunswick),19
255,17325,21-Glenlyon Rd/Sydney Rd (Brunswick),19
256,17327,19-Brunswick Rd/Sydney Rd (Brunswick),19
257,17328,18-Princes Park/Royal Pde (Parkville),19
258,17329,17-Ievers St/Royal Pde (Parkville),19
259,17330,16-Walker St/Royal Pde (Parkville),19
260,17331,15-Leonard St/Royal Pde (Parkville),19
261,17332,14-Cemetery Road West/Royal Pde (Parkville),19
262,17333,13-Gatehouse St/Royal Pde (Parkville),19
263,17334,12-Morrah St/Royal Pde (Parkville),19
264,17335,11-University of Melbourne/Royal Pde (Parkville),19
265,17591,7-Russell St/Bourke St (Melbourne City),"96,86"
266,17593,6-Swanston St/Bourke St (Melbourne City),"96,86"
267,17594,5-Elizabeth St/Bourke St (Melbourne City),"96,86"
268,17596,4-Queen St/Bourke St (Melbourne City),"96,86"
269,17597,3-William St/Bourke St (Melbourne City),"96,86"
270,17602,32-Hornby St/High St (Prahran),6
271,17603,31-Chapel St/High St (Prahran),6
272,17604,30-Prahran Station/High St (Windsor),6
273,17605,29-Perth St/High St (Windsor),6
274,17606,28-Punt Rd/High St (Windsor),6
275,1784,37-Gaffney St/Sydney Rd (Coburg),19
276,17848,1-Spencer St/Bourke St (Melbourne City),"96,86"
277,17849,1-Spencer St/Bourke St (Melbourne City),"96,86"
278,17850,1-Flinders Street Railway Station/Elizabeth St (Melbourne City),"57,59,19"
279,17851,2-Collins St/Elizabeth St (Melbourne City),"57,59,19"
280,17852,3-Bourke Street Mall/Elizabeth St (Melbourne City),"57,59,19"
281,17854,5-Melbourne Central Station/Elizabeth St (Melbourne City),"57,59,19"
282,17856,7-Queen Victoria Market/Elizabeth St (Melbourne City),"57,59,19"
283,17857,8-Peel St/Victoria St (Melbourne City),57
284,17858,9-William St/Victoria St (Melbourne City),57
285,17859,10-Chetwynd St/Victoria St (Melbourne City),57
286,17860,11-Errol St/Victoria St (Melbourne City),57
287,17861,11-Victoria St/Errol St (North Melbourne),57
288,17862,10-Chetwynd St/Victoria St (Melbourne City),57
289,17863,9-Howard St/Victoria St (Melbourne City),57
290,17864,8-Peel St/Victoria St (Melbourne City),57
291,17866,9-Pelham St/Elizabeth St (Melbourne City),"59,19"
292,17867,10-Royal Melbourne Hospital/Royal Pde (Melbourne City),19
293,17868,10-Royal Melbourne Hospital/Royal Pde (Parkville),19
294,17869,9-Pelham St/Elizabeth St (Melbourne City),"59,19"
295,17871,7-Queen Victoria Market/Elizabeth St (Melbourne City),"57,59,19"
296,17873,5-Melbourne Central Station/Elizabeth St (Melbourne City),"57,59,19"
297,17875,3-Bourke Street Mall/Elizabeth St (Melbourne City),"57,59,19"
298,17876,2-Collins St/Elizabeth St (Melbourne City),"57,59,19"
299,17877,1-Flinders Street Railway Station/Elizabeth St (Melbourne City),"57,59,19"
300,17878,11-Melbourne Museum/Nicholson St (Fitzroy),"96,86"
301,17880,10-Albert St/Nicholson St (Fitzroy),"86,96,35"
302,17882,9-Spring St/Bourke St (Melbourne City),"96,86"
303,17885,3-William St/Bourke St (Melbourne City),"96,86"
304,17886,4-Queen St/Bourke St (Melbourne City),"96,86"
305,17887,5-Elizabeth St/Bourke St (Melbourne City),"96,86"
306,17888,6-Swanston St/Bourke St (Melbourne City),"96,86"
307,17889,7-Russell St/Bourke St (Melbourne City),"96,86"
308,1789,50-Anderson St/Wattletree Rd (Malvern East),5
309,17891,9-Spring St/Bourke St (Melbourne City),"96,86"
310,17892,10-Albert St/Nicholson St (East Melbourne),"86,96,35"
311,17894,11-Melbourne Museum/Nicholson St (Fitzroy),"96,86"
312,17895,12-St Vincents Plaza/Victoria Pde (East Melbourne),"11,12,30,109"
313,17896,11-Albert St/Gisborne St (East Melbourne),"11,12,109"
314,17897,10-Parliament Railway Station/Macarthur St (East Melbourne),"11,12,109"
315,17898,8-Spring St/Collins St (Melbourne City),"11,12,48,109"
316,17901,6-Melbourne Town Hall/Collins St (Melbourne City),"11,12,48,109"
317,17902,5-Elizabeth St/Collins St (Melbourne City),"11,12,48,109"
318,17903,3-William St/Collins St (Melbourne City),"11,12,48,109"
319,17905,1-Spencer St/Collins St (Melbourne City),"11,12,48,109"
320,17906,1-Spencer St/Collins St (Melbourne City),"11,12,48,109"
321,17908,3-William St/Collins St (Melbourne City),"11,12,48,109"
322,18513,35-Moore St/Maribyrnong Rd (Moonee Ponds),82
323,18514,36-Bayview Tce/Maribyrnong Rd (Moonee Ponds),82
324,18515,37-Union Rd/Maribyrnong Rd (Moonee Ponds),82
325,18516,38-Ferguson St/Maribyrnong Rd (Ascot Vale),"82,57"
326,18517,39-Bowen St/Maribyrnong Rd (Moonee Ponds),"82,57"
327,18518,40-Epsom Rd/Maribyrnong Rd (Ascot Vale),"82,57"
328,18519,37-Maribyrnong Rd/Union Rd (Ascot Vale),57
329,18520,36-St Leonards Rd/Union Rd (Ascot Vale),57
330,18521,35-Munro St/Union Rd (Ascot Vale),57
331,18522,34-Burrowes St/Union Rd (Ascot Vale),57
332,18524,32-Sandown Rd/Epsom Rd (Ascot Vale),57
333,18525,31-Racing Victoria/400 Epsom Rd (Flemington),57
334,18526,30-Flemington Racecourse/Epsom Rd (Flemington),57
335,18527,29-Flemington Racecourse/Racecourse Rd (Flemington),57
336,18528,28-Smithfield Rd/Racecourse Rd (Flemington),57
337,18529,26-Newmarket Plaza/Racecourse Rd (Kensington),57
338,18530,25-Wellington St/Racecourse Rd (Flemington),57
339,18531,24-Collett St/Racecourse Rd (Kensington),57
340,18532,23-Stubbs St/Racecourse Rd (Flemington),57
341,18533,22-Boundary Rd/Racecourse Rd (North Melbourne),57
342,18536,19-Abbotsford St Interchange/Abbotsford St (North Melbourne),57
343,18537,18-Erskine St/Abbotsford St (North Melbourne),57
344,18538,17-Canning St/Abbotsford St (North Melbourne),57
345,18539,16-Haines St/Abbotsford St (North Melbourne),57
346,18540,15-Arden St/Abbotsford St (North Melbourne),57
347,18541,14-Abbotsford St/Queensberry St (North Melbourne),57
348,18543,23-Royal Park/Royal Park (Parkville),58
349,18544,24-Elliott Ave/Royal Park (Parkville),58
350,18545,25-State Netball Hockey Centre/Royal Park (Parkville),58
351,18546,26-Melbourne Zoo/Royal Park (Parkville),58
352,18547,27-Royal Park Station/Royal Park (Parkville),58
353,18548,28-Park St/Royal Park (Parkville),58
354,18549,29-Brunswick Rd/Royal Park (Parkville),58
355,18550,30-Union Square Shopping Centre/Grantham St (Brunswick West),58
356,18551,31-Dawson St/Grantham St (Brunswick West),58
357,18552,32-Foden St/Dawson St (Brunswick),58
358,18553,33-Daly St/Dawson St (Brunswick),58
359,18554,34-Smith St/Melville Rd (Brunswick West),58
360,18555,35-Victoria St/Melville Rd (Brunswick West),58
361,18556,36-Hope St/Melville Rd (Brunswick West),58
362,18557,37-Albion St/Melville Rd (Brunswick West),58
363,18558,38-Jacobs Reserve/Melville Rd (Brunswick West),58
364,18559,39-McGregor Ave/Melville Rd (Brunswick West),58
365,18560,40-Moreland Rd/Melville Rd (Brunswick West),58
366,18561,41-Woodlands Ave/Melville Rd (Pascoe Vale South),58
367,18562,42-Reynard St/Melville Rd (Pascoe Vale South),58
368,18563,43-Princes Tce/Melville Rd (Pascoe Vale South),58
369,18564,44-Brearley Pde/Melville Rd (Pascoe Vale South),58
370,18566,51-Balwyn Rd/Doncaster Rd (Balwyn North),48
371,18567,50-Dight Ave/Doncaster Rd (Balwyn North),48
372,18568,49-Buchanan Ave/Doncaster Rd (Balwyn North),48
373,18569,48-Osburn Ave/Doncaster Rd (Balwyn North),48
374,18570,47-North Balwyn Shopping Centre/Doncaster Rd (Balwyn North),48
375,18571,46-Wattle Ave/Doncaster Rd (Balwyn North),48
376,18573,26-Ferrars St/Park St (South Melbourne),1
377,18574,43-Kew High School/High St (Kew East),48
378,18575,42-Woodlands Ave/High St (Kew East),48
379,18576,41-Station St/High St (Kew East),48
380,18577,40-Harp Village/High St (Kew East),48
381,18578,39-Harp Rd/High St (Kew East),48
382,18579,38-Victoria Park/High St (Kew East),48
383,18580,37-Kew Cemetery/High St (Kew),48
384,18581,36-Gladstone St/High St (Kew),48
385,18582,35-Charles St/High St (Kew),48
386,18583,34-Union St/High St (Kew),48
387,18584,33-Kew Shopping Centre/High St (Kew),48
388,18588,25-Brook St/Church St (Hawthorn),48
389,18589,24-Hill St/Church St (Hawthorn),48
390,18591,65-Victoria St/Church St (Richmond),78
391,18592,64-Elizabeth St/Church St (Richmond),78
392,18593,63-Tweedie Pl/Church St (Richmond),78
393,18594,62-Highett St/Church St (Richmond),78
394,18595,61-Bridge Rd/Church St (Richmond),78
395,18596,60-Abinger St/Church St (Richmond),78
396,18597,59-St Ignatius Church/Church St (Richmond),78
397,18598,58-Gipps St/Church St (Richmond),78
398,18599,57-Swan St/Church St (Richmond),78
399,18601,55-Adelaide St/Church St (Cremorne),78
400,18602,54-Cotter St/Church St (Cremorne),78
401,18603,53-Howard St/Church St (Richmond),78
402,18605,51-Malcolm St/Chapel St (South Yarra),78
403,18606,50-Toorak Rd/Chapel St (South Yarra),78
404,18607,49-Palermo St/Chapel St (South Yarra),78
405,18608,48-Cliff St/Chapel St (South Yarra),78
406,18609,47-Commercial Rd/Chapel St (Prahran),78
407,18610,46-Chatham St/Chapel St (Prahran),78
408,18611,45-High St/Chapel St (Prahran),78
409,18612,44-Duke St/Chapel St (Windsor),78
410,18613,43-Windsor Railway Station/Chapel St (Windsor),78
411,18614,42-Dandenong Rd/Chapel St (St Kilda East),78
412,18615,41-St Michaels Grammar School/Chapel St (St Kilda),78
413,18616,40-Alma Rd/Chapel St (St Kilda East),78
414,18617,39-Argyle St/Chapel St (St Kilda East),78
415,18618,38-Inkerman St/Chapel St (St Kilda East),78
416,18619,37-Chapel St/Carlisle St (Balaclava),"3/3a,16"
417,18620,36-St Kilda Town Hall/Carlisle St (St Kilda),"3/3a,16"
418,18621,37-Carlisle St/Chapel St (St Kilda),78
419,18622,36-Brighton Rd/Chapel St (St Kilda),78
420,18623,35-St Kilda Rd/Carlisle St (St Kilda),"3/3a,67,16"
421,18624,34-Greeves St/Carlisle St (St Kilda),"3/3a,16"
422,18625,33-Barkly St/Carlisle St (St Kilda),"3/3a,16"
423,18632,38-Balaclava Station/Carlisle St (Balaclava),"3/3a,16"
424,18633,39-Orange Gr/Carlisle St (Balaclava),"3/3a,16"
425,18634,40-Hotham St/Carlisle St (Balaclava),"3/3a,16"
426,18635,41-Vadlure Ave/Balaclava Rd (Caulfield North),"3/3a,16"
427,18636,42-Sidwell Ave/Balaclava Rd (Caulfield North),"3/3a,16"
428,18637,43-Orrong Rd/Balaclava Rd (Caulfield North),"3/3a,16"
429,18638,44-Ontario St/Balaclava Rd (Caulfield North),"3/3a,16"
430,18639,45-Lumeah Rd/Balaclava Rd (Caulfield North),"3/3a,16"
431,18640,46-Kooyong Rd/Balaclava Rd (Caulfield North),"3/3a,16"
432,18641,47-Elmhurst Rd/Balaclava Rd (Caulfield North),"3/3a,16"
433,18645,51-Hawthorn Rd/Balaclava Rd (Caulfield North),"3/3a,16"
434,18646,52-Caulfield Park Bowling Club/Balaclava Rd (Caulfield North),3/3a
435,18647,53-Caulfield Park/Balaclava Rd (Caulfield North),3/3a
436,18648,54-Kambrook Rd/Balaclava Rd (Caulfield North),3/3a
437,18649,55-Normanby Rd/Balaclava Rd (Caulfield North),3/3a
438,18650,56-Caulfield Racecourse/Normanby Rd (Caulfield North),3/3a
439,18651,57-Caulfield Railway Station/Derby Rd (Caulfield East),3/3a
440,18652,58-Dandenong Rd/Derby Rd (Caulfield North),3/3a
441,18653,59-Dandenong Rd/Waverley Rd (Malvern East),3/3a
442,18654,60-Burke Rd/Waverley Rd (Malvern East),3/3a
443,18655,61-Tennyson St/Waverley Rd (Malvern East),3/3a
444,18656,62-The Avenue/Waverley Rd (Malvern East),3/3a
445,18657,63-Oak Gr/Waverley Rd (Malvern East),3/3a
446,18658,27-Park St/Montague St (South Melbourne),1
447,18659,28-Montague St/Bridport St (Albert Park),1
448,18660,29-Bridport St/Victoria Ave (Albert Park),1
449,18661,30-Richardson St/Victoria Ave (Albert Park),1
450,18662,31-Graham St/Victoria Ave (Albert Park),1
451,18663,32-Beaconsfield Pde/Victoria Ave (Albert Park),1
452,18699,124-Walsh St/Toorak Rd (South Yarra),58
453,18700,125-Punt Rd/Toorak Rd (South Yarra),58
454,18702,126-Myrtle St/Toorak Rd (South Yarra),58
455,18703,127-South Yarra Railway Station/Toorak Rd (South Yarra),58
456,18704,128-Chapel St/Toorak Rd (South Yarra),58
457,18705,129-Tivoli Rd/Toorak Rd (South Yarra),58
458,18706,130-Hawksburn Rd/Toorak Rd (South Yarra),58
459,18707,131-Williams Rd/Toorak Rd (Toorak),58
460,18708,132-Toorak Village/Toorak Rd (Toorak),58
461,18709,133-Canterbury Rd/Toorak Rd (Toorak),58
462,18710,43-Deepdene Shopping Centre/Whitehorse Rd (Balwyn),109
463,18711,119-Park St/Lygon St (Carlton North),"6,1"
464,18712,120-Brunswick Rd/Lygon St (Brunswick),"6,1"
465,18713,121-Weston St/Lygon St (Brunswick East),"6,1"
466,18714,122-Glenlyon Rd/Lygon St (Brunswick East),"6,1"
467,18715,123-Albert St/Lygon St (Brunswick East),"6,1"
468,18716,124-Victoria St/Lygon St (Brunswick East),"6,1"
469,18717,125-Blyth St/Lygon St (Brunswick East),"6,1"
470,18718,126-Stewart St/Lygon St (Brunswick East),"6,1"
471,18719,127-Albion St/Lygon St (Brunswick East),"6,1"
472,18720,128-Mitchell St/Holmes St (Brunswick East),"6,1"
473,18721,129-Moreland Rd/Holmes St (Brunswick),"6,1"
474,18722,130-Barrow St/Moreland Rd (Coburg),6
475,18723,131-De Carle St/Moreland Rd (Coburg),6
476,18724,132-Sydney Rd/Moreland Rd (Coburg),6
477,18725,133-Moreland Station/Moreland Rd (Coburg),6
478,18726,130-The Avenue/Nicholson St (Coburg),1
479,18727,131-Rennie St/Nicholson St (Coburg),1
480,18728,132-Crozier St/Nicholson St (Coburg),1
481,18729,133-Harding St/Nicholson St (Coburg),1
482,17910,5-Elizabeth St/Collins St (Melbourne City),"11,12,48,109"
483,17911,6-Melbourne Town Hall/Collins St (Melbourne City),"11,12,48,109"
484,17914,8-Spring St/Collins St (Melbourne City),"11,12,48,109"
485,17915,10-Parliament Railway Station/Macarthur St (East Melbourne),"11,12,109"
486,17917,46-Rosamond Rd/Raleigh Rd (Maribyrnong),"82,57"
487,17918,48-Raleigh Rd/Wests Rd (Maribyrnong),82
488,17919,49-Highpoint Shopping Centre/Wests Rd (Maribyrnong),82
489,17920,50-Wests Rd/Williamson Rd (Maribyrnong),82
490,17921,51-Williamson Rd/Rosamond Rd (Maidstone),82
491,17922,52-Rosamond Rd/River St (Maribyrnong),82
492,17923,53-Maribyrnong College/River St (Maribyrnong),82
493,17924,54-Gordon St/River St (Maribyrnong),82
494,17925,55-Lyric St/Gordon St (Maribyrnong),82
495,17926,56-Edgewater Square/Gordon St (Maribyrnong),82
496,17927,57-Titch St/Gordon St (Footscray),82
497,17928,58-Ballarat Rd/Gordon St (Footscray),82
498,17929,59-Droop St/Ballarat Rd (Footscray),82
499,17930,60-Tiernan St/Droop St (Footscray),82
500,17931,61-Geelong Rd/Droop St (Footscray),82
501,17932,62-Nicholson St/Hopkins St (Footscray),82
502,17933,63-Footscray Market/Leeds St (Footscray),82
503,17934,64-Footscray Station/Leeds St (Footscray),82
504,17935,40-Epsom Rd/Maribyrnong Rd (Moonee Ponds),"82,57"
505,17936,39-Bowen St/Maribyrnong Rd (Moonee Ponds),"82,57"
506,17937,38-Hotham St/Maribyrnong Rd (Moonee Ponds),"82,57"
507,17938,37-Union Rd/Maribyrnong Rd (Moonee Ponds),"82,57"
508,17939,36-86 Maribyrnong Rd (Moonee Ponds),82
509,17940,35-Moore St/Maribyrnong Rd (Moonee Ponds),82
510,17941,34-Ascot Vale Rd/Maribyrnong Rd (Moonee Ponds),82
511,17942,33-Chaucer St/Ascot Vale Rd (Moonee Ponds),82
512,17944,49-Central Park Ave/Cordite Ave (Maribyrnong),57
513,17945,36-St Leonards Rd/Union Rd (Ascot Vale),57
514,17946,35-Bloomfield Rd/Union Rd (Ascot Vale),57
515,17947,34-Burrowes St/Union Rd (Ascot Vale),57
516,17948,33-Melbourne Showgrounds/Union Rd (Ascot Vale),57
517,17949,32-Sandown Rd/Epsom Rd (Ascot Vale),57
518,17950,31-Racing Victoria/161 Epsom Rd (Ascot Vale),57
519,17951,30-Flemington Racecourse/Epsom Rd (Ascot Vale),57
520,17952,29-Flemington Racecourse/Racecourse Rd (Flemington),57
521,17953,28-Smithfield Rd/Racecourse Rd (Flemington),57
522,17954,26-Newmarket Plaza/Racecourse Rd (Flemington),57
523,17955,25-Wellington St/Racecourse Rd (Flemington),57
524,17956,24-Victoria St/Racecourse Rd (Flemington),57
525,17957,23-Stubbs St/Racecourse Rd (Flemington),57
526,17958,22-Boundary Rd/Racecourse Rd (North Melbourne),57
527,17959,20-Melrose St/Flemington Rd (North Melbourne),"59,57"
528,17961,19-Abbotsford St Interchange/Abbotsford St (North Melbourne),57
529,18006,11-Albert St/Gisborne St (East Melbourne),"11,12,109"
530,18009,10-Nicholson St/Victoria Pde (East Melbourne),30
531,18010,9-La Trobe St/Victoria St (Melbourne City),"35,30"
532,18011,8-Exhibition St/La Trobe St (Melbourne City),"35,30"
533,18030,6-Swanston St/La Trobe St (Melbourne City),"35,30"
534,18031,5-Elizabeth St/La Trobe St (Melbourne City),"35,30"
535,18032,4-Queen St/La Trobe St (Melbourne City),"35,30"
536,18033,3-William St/La Trobe St (Melbourne City),"35,30"
537,18035,1-Spencer St/La Trobe St (Melbourne City),"35,30"
538,18037,D10-New Quay Prom/Docklands Dr (Docklands),"70,86,35"
539,18038,D11-Waterfront City/Docklands Dr (Docklands),"70,86,35"
540,18039,D10-NewQuay Prom/Docklands Dr (Docklands),"70,86,35"
541,18040,D1-Etihad Stadium/La Trobe St (Docklands),"35,86,30"
542,18041,119-Spencer St/La Trobe St (Melbourne City),"35,86,30"
543,18042,2-King St/La Trobe St (Melbourne City),"35,30"
544,18043,3-William St/La Trobe St (Melbourne City),"35,30"
545,18044,4-Queen St/La Trobe St (Melbourne City),"35,30"
546,18045,5-Elizabeth St/La Trobe St (Melbourne City),"35,30"
547,18046,6-Swanston St/La Trobe St (Melbourne City),"35,30"
548,18047,7-Russell St/La Trobe St (Melbourne City),"35,30"
549,18048,8-Exhibition St/La Trobe St (Melbourne City),"35,30"
550,18049,9-Victoria St/La Trobe St (Melbourne City),"35,30"
551,18050,10-Nicholson St/Victoria Pde (Carlton),"35,30"
552,18051,12-St Vincents Plaza/Victoria Pde (Fitzroy),"11,12,30,109"
553,18052,D2-Central Pier/Harbour Esp (Docklands),"35,70,75,86,30"
554,18053,D3-Bourke St/Harbour Esp (Docklands),"70,75,35"
555,18054,D4-Docklands Park/Harbour Esp (Docklands),"70,75,35"
556,18055,D5-South Wharf/Wurundjeri Way (Docklands),"70,75,35"
557,18056,D6-Flinders Street West/Flinders St (Docklands),"70,75,35"
558,18057,18-Chapman St/Abbotsford St (North Melbourne),57
559,18058,17-Molesworth St/Abbotsford St (North Melbourne),57
560,18059,16-Haines St/Abbotsford St (North Melbourne),57
561,18060,15-Arden St/Abbotsford St (North Melbourne),57
562,18061,14-Queensberry St/Abbotsford St (North Melbourne),57
563,18063,23-Royal Park/Royal Park (Parkville),58
564,18064,24-Elliott Ave/Royal Park (Parkville),58
565,18065,25-State Netball Hockey Centre/Royal Park (Parkville),58
566,18066,26-Melbourne Zoo/Royal Park (Parkville),58
567,18067,27-Royal Park Station/Royal Park (Parkville),58
568,18068,28-Park St/Royal Park (Parkville),58
569,18069,29-Brunswick Rd/Grantham St (Brunswick West),58
570,18071,30-Union Square Shopping Centre/Grantham St (Brunswick West),58
571,18072,31-Grantham St/Dawson St (Brunswick West),58
572,18073,32-Foden St/Dawson St (Brunswick),58
573,18074,33-South Daly St/Dawson St (Brunswick West),58
574,18075,34-Smith St/Melville Rd (Brunswick),58
575,18076,35-Victoria St/Melville Rd (Brunswick West),58
576,18077,36-Hope St/Melville Rd (Brunswick West),58
577,18078,37-Albion St/Melville Rd (Brunswick West),58
578,18079,38-Jacobs Reserve/Melville Rd (Brunswick West),58
579,18080,39-Mattingley Cres/Melville Rd (Brunswick West),58
580,18081,40-Moreland Rd/Melville Rd (Brunswick West),58
581,18082,41-Woodlands Ave/Melville Rd (Pascoe Vale South),58
582,18083,42-Reynard St/Melville Rd (Pascoe Vale South),58
583,18084,43-Princes Tce/Melville Rd (Pascoe Vale South),58
584,18085,44-Brearley Pde/Melville Rd (Pascoe Vale South),58
585,18086,45-Bell St/Melville Rd (Pascoe Vale South),58
586,18087,3-Market St/Flinders St (Melbourne City),"70,75,35"
587,18089,4-Elizabeth St/Flinders St (Melbourne City),"70,75,35"
588,18090,5-Swanston St/Flinders St (Melbourne City),"70,75,35"
589,18091,6-Russell St/Flinders St (Melbourne City),"70,75,35"
590,18092,8-Spring St/Flinders St (Melbourne City),"75,35"
591,18093,9-Lansdowne St/Wellington Pde (East Melbourne),"75,48"
592,18094,10-Jolimont Rd/Wellington Pde (East Melbourne),"75,48"
593,18095,11-Jolimont Station-MCG/Wellington Pde (East Melbourne),"75,48"
594,18097,13-Simpson St/Wellington Pde (East Melbourne),"75,48"
595,18098,14-Punt Rd/Wellington Pde (Melbourne City),"75,48"
596,18099,14-Punt Rd/Bridge Rd (Richmond),"75,48"
597,18100,13-Simpson St/Wellington Pde (East Melbourne),"75,48"
598,18102,11-Jolimont Station-MCG/Wellington Pde (East Melbourne),"75,48"
599,18103,10-Jolimont Rd/Wellington Pde (East Melbourne),"75,48"
600,18104,9-Lansdowne St/Wellington Pde (Melbourne City),"75,48"
601,18105,8-Spring St/Flinders St (Melbourne City),"75,35"
602,18108,7B-Rod Laver Arena/MCG Gates 1-3 (Melbourne City),70
603,18116,7C-MCG Gates 4-7/John Cain Arena (Melbourne City),70
604,18118,7D-Olympic Boulevard (Melbourne City),70
605,18155,7D-Olympic Boulevard (Melbourne City),70
606,18161,7C-MCG Gates 4-7/John Cain Arena (Melbourne City),70
607,18172,7B-Rod Laver Arena/MCG Gates 1-3 (Melbourne City),70
608,18174,6-Russell St/Flinders St (Melbourne City),"70,75,35"
609,18175,5-Swanston St/Flinders St (Melbourne City),"70,75,35"
610,18176,4-Elizabeth St/Flinders St (Melbourne City),"70,75,35"
611,18178,3-Market St/Flinders St (Melbourne City),"70,75,35"
612,18179,D6-Victoria Police Centre/Flinders St (Southbank),"70,75,35"
613,18180,D5-South Wharf/Wurundjeri Way (Docklands),"70,75,35"
614,18181,D4-Docklands Park/Harbour Esp (Docklands),"70,75,35"
615,18182,D3-Bourke St/Harbour Esp (Docklands),"70,75,35"
616,18183,D2-CentralPier/Harbour Esp (Docklands),"35,70,75,86,30"
617,18184,125-Clarendon St/Whiteman St (Southbank),"12,96,109"
618,18185,124A-Casino/MCEC/Clarendon St (Southbank),"12,96,109"
619,18186,124-Batman Park/Spencer St (Melbourne City),"12,96,109"
620,18187,122-Southern Cross Railway Station/Spencer St (Melbourne City),96
621,18189,120-Lonsdale St/Spencer St (Melbourne City),86
622,18190,119-La Trobe St/Spencer St (Melbourne City),86
623,18192,120-Lonsdale St/Spencer St (Melbourne City),86
624,18194,122-Southern Cross Railway Station/Spencer St (Melbourne City),96
625,18196,124-Batman Park/Spencer St (Melbourne City),"12,96,109"
626,18197,124A-Casino/MCEC/Clarendon St (Southbank),"12,96,109"
627,18199,5-Bourke St/William St (Melbourne City),58
628,18201,7-Flagstaff Railway Station/William St (Melbourne City),58
629,18202,8-Franklin St/William St (Melbourne City),58
630,18203,10-Victoria St/Peel St (West Melbourne),58
631,18204,10-Victoria St/Peel St (West Melbourne),58
632,18205,9-Queen Victoria Market/Peel St (North Melbourne),58
633,18206,9-Queen Victoria Market/39 Peel St (North Melbourne),58
634,18512,34-Maribyrnong Rd/Ascot Vale Rd (Moonee Ponds),82
635,18730,134-Merribell Ave/Nicholson St (Coburg),1
636,18732,44-Deepdene Park/Whitehorse Rd (Balwyn),109
637,18733,45-Hardwicke St/Whitehorse Rd (Balwyn),109
638,18734,46-Balwyn Cinema/Whitehorse Rd (Balwyn),109
639,18735,47-Balwyn Rd/Whitehorse Rd (Balwyn),109
640,18736,48-Balwyn Shopping Centre/Whitehorse Rd (Balwyn),109
641,18737,49-Northcote Ave/Whitehorse Rd (Balwyn),109
642,18738,51-Narrak Rd/Whitehorse Rd (Mont Albert),109
643,18781,134-Orrong Rd/Toorak Rd (Toorak),58
644,18782,135-Woorigoleen Rd/Toorak Rd (Toorak),58
645,18783,136-Irving Rd/Toorak Rd (Toorak),58
646,18784,137-Kooyong Rd/Toorak Rd (Toorak),58
647,18785,138-Moonga Rd/Toorak Rd (Toorak),58
648,18786,139-Glenbervie Rd/Toorak Rd (Toorak),58
649,18789,112-Lygon St/Elgin St (Carlton),"6,1"
650,18790,113-Lytton St/Lygon St (Carlton),"6,1"
651,18791,114-Princes St/Lygon St (Carlton North),"6,1"
652,18792,115-Melbourne Cemetery/Lygon St (Carlton North),"6,1"
653,18793,116-Fenwick St/Lygon St (Carlton North),"6,1"
654,18794,117-Richardson St/Lygon St (Carlton North),"6,1"
655,18795,118-Pigdon St/Lygon St (Carlton North),"6,1"
656,18899,26-Alfred Hospital/Commercial Rd (South Yarra),72
657,18918,27-Punt Rd/Commercial Rd (South Yarra),72
658,18923,28-Braille Library/Commercial Rd (South Yarra),72
659,18931,29-Porter St/Commercial Rd (South Yarra),72
660,18933,30-Prahran Market/Commercial Rd (South Yarra),72
661,18934,31-Chapel St/Commercial Rd (South Yarra),72
662,18935,32-Surrey Rd/Malvern Rd (South Yarra),72
663,18936,33-Francis St/Malvern Rd (South Yarra),72
664,18937,34-Williams Rd/Malvern Rd (South Yarra),72
665,18938,35-Mathoura Rd/Malvern Rd (Toorak),72
666,18939,36-A'Beckett St/Malvern Rd (Toorak),72
667,18940,37-Orrong Rd/Malvern Rd (Toorak),72
668,18941,38-Clendon Rd/Malvern Rd (Toorak),72
669,18942,39-Irving Rd/Malvern Rd (Toorak),72
670,18943,40-Kooyong Rd/Malvern Rd (Toorak),72
671,18944,41-Albany Rd/Malvern Rd (Toorak),72
672,18945,42-Lauriston Girls School/Malvern Rd (Toorak),72
673,18946,43-Glenferrie Rd/Malvern Rd (Toorak),72
674,18947,44-Plant St/Malvern Rd (Malvern),72
675,18948,45-Elizabeth St/Malvern Rd (Malvern),72
676,18949,46-Meredith St/Malvern Rd (Malvern),72
677,18950,47-Tooronga Rd/Malvern Rd (Malvern),72
678,18951,48-Edgar St/Malvern Rd (Malvern),72
679,18952,49-Kenilworth Gr/Malvern Rd (Malvern),72
680,18953,50-Burke Rd/Malvern Rd (Malvern),72
681,18954,51-Gardiner Railway Station/Burke Rd (Hawthorn East),72
682,18955,52-Harris Ave/Burke Rd (Hawthorn East),72
683,18956,53-Faircroft Ave/Burke Rd (Hawthorn East),72
684,18957,54-Toorak Rd/Burke Rd (Glen Iris),72
685,18958,55-Middle Rd/Burke Rd (Hawthorn East),72
686,18959,56-Anderson Rd/Burke Rd (Hawthorn East),72
687,18960,57-Pine Ave/Burke Rd (Hawthorn East),72
688,18961,58-Leura Gr/Burke Rd (Hawthorn East),72
689,18962,59-Pleasant Rd/Burke Rd (Hawthorn East),72
690,18963,60-Campbell Rd/Burke Rd (Hawthorn East),72
691,18964,61-Riversdale Rd/Burke Rd (Hawthorn East),72
692,18965,62-Camberwell Shopping Centre/755 Burke Rd (Hawthorn East),72
693,18966,63-Prospect Hill Rd/Burke Rd (Hawthorn East),72
694,18967,64-Camberwell Station/Burke Rd (Hawthorn East),72
695,18968,65-Victoria Rd/Burke Rd (Hawthorn East),72
696,18969,66-Rathmines Rd/Burke Rd (Hawthorn East),72
697,18970,67-Camberwell Girls Grammar/Burke Rd (Hawthorn East),72
698,18971,68-Mont Albert Rd/Burke Rd (Kew),72
699,18972,69-Sackville St/Burke Rd (Kew),72
700,18973,36-St Kilda Primary School/Brighton Rd (Balaclava),67
701,18974,37-Chapel St/Brighton Rd (Balaclava),67
702,18975,38-Brunning St/Brighton Rd (Balaclava),67
703,18976,39-Glen Eira Rd/Brighton Rd (Balaclava),67
704,18977,40-Scott St/Brighton Rd (Balaclava),67
705,18978,41-Coleridge St/Brighton Rd (Balaclava),67
706,18979,42-Hotham St/Brighton Rd (Balaclava),67
707,18980,43-Brighton Rd/Glenhuntly Rd (Elsternwick),67
708,18981,44-Elsternwick Railway Station/Glenhuntly Rd (Elsternwick),67
709,18982,45-Elsternwick Shopping Centre/Glenhuntly Rd (Elsternwick),67
710,18983,46-Orrong Rd/Glenhuntly Rd (Elsternwick),67
711,18984,47-Shoobra Rd/Glenhuntly Rd (Elsternwick),67
712,18985,48-Parkside St/Glenhuntly Rd (Elsternwick),67
713,18986,49-Kooyong Rd/Glenhuntly Rd (Elsternwick),67
714,18987,50-Royal Pde/Glenhuntly Rd (Caulfield),67
715,19000,67-Rogers Ave/Hawthorn Rd (Brighton East),64
716,19001,66-Union St/Hawthorn Rd (Brighton East),64
717,19002,65-Davey Ave/Hawthorn Rd (Brighton East),64
718,19003,64-Taylor St/Hawthorn Rd (Brighton East),64
719,19004,63-North Rd/Hawthorn Rd (Brighton East),64
720,19005,62-Gardenvale Rd/Hawthorn Rd (Caulfield South),64
721,19006,61-Stone St/Hawthorn Rd (Caulfield South),64
722,19007,60-Dover St/Hawthorn Rd (Caulfield South),64
723,19008,59-Princes Park/Hawthorn Rd (Caulfield South),64
724,19009,58-Sycamore St/Hawthorn Rd (Caulfield South),64
725,19010,57-Glenhuntly Rd/Hawthorn Rd (Caulfield),64
726,19011,56-Briggs St/Hawthorn Rd (Caulfield),64
727,19012,55-Sylverly Gr/Hawthorn Rd (Caulfield North),64
728,19013,54-Glen Eira Rd/Hawthorn Rd (Caulfield North),64
729,19014,53-Northcote Ave/Hawthorn Rd (Caulfield North),64
730,19015,52-Halstead St/Hawthorn Rd (Caulfield North),64
731,19016,51-Balaclava Rd/Hawthorn Rd (Caulfield North),"64,16"
732,19017,50-Inkerman Rd/Hawthorn Rd (Caulfield North),"64,16"
733,19018,49-Arthur St/Hawthorn Rd (Caulfield North),"64,16"
734,19019,48-Hawthorn Rd/Dandenong Rd (Caulfield North),64
735,19023,44-Bailey Ave/Dandenong Rd (Armadale),64
736,19024,43-Egerton Rd/Dandenong Rd (Armadale),64
737,19025,42-Kooyong Rd/Dandenong Rd (Armadale),64
738,19026,41-Cantala Ave/Dandenong Rd (Armadale),64
739,19027,40-Wattletree Rd/Dandenong Rd (Armadale),"64,5"
740,19028,38-Orrong Rd/Dandenong Rd (Prahran),"64,5"
741,19029,37-Lansdowne Rd/Dandenong Rd (St Kilda East),"64,5"
742,19030,36-Closeburn Ave/Dandenong Rd (St Kilda East),"64,5"
743,19031,35-Williams Rd/Dandenong Rd (Prahran),"64,5"
744,19032,34-The Avenue/Dandenong Rd (Windsor),"64,5"
745,19033,33-Hornby St/Dandenong Rd (Windsor),"64,5"
746,19034,32-Chapel St/Dandenong Rd (Windsor),"64,5"
747,19035,31-Queens Way/Queens Way (Windsor),"64,5"
748,19036,70-Cotham Rd/Burke Rd (Kew),72
749,19037,69-Peverill St/Burke Rd (Balwyn),72
750,19038,68-Mont Albert Rd/Burke Rd (Camberwell),72
751,19039,67-Camberwell Girls Grammar/Burke Rd (Canterbury),72
752,19040,66-Canterbury Rd/Burke Rd (Camberwell),72
753,19041,65-Victoria Rd/Burke Rd (Camberwell),72
754,19042,64-Camberwell Station/Burke Rd (Camberwell),72
755,19043,63-Prospect Hill Rd/Burke Rd (Camberwell),72
756,19044,61-Camberwell Junction/Burke Rd (Camberwell),72
757,19045,60-Reserve Rd/Burke Rd (Camberwell),72
758,19046,59-Seymour Gr/Burke Rd (Camberwell),72
759,19047,58-Currajong Ave/Burke Rd (Camberwell),72
760,19048,57-Pine Ave/Burke Rd (Camberwell),72
761,19049,56-Anderson Rd/Burke Rd (Camberwell),72
762,19050,55-Middle Rd/Burke Rd (Camberwell),72
763,19051,54-Toorak Rd/Burke Rd (Camberwell),72
764,19052,53-Howitt St/Burke Rd (Glen Iris),72
765,19053,52-Bickleigh St/Burke Rd (Glen Iris),72
766,19054,51-Gardiner Station/Burke Rd (Glen Iris),72
767,19056,50-Glenarm Rd/Malvern Rd (Glen Iris),72
768,19057,49-Belmont Ave/Malvern Rd (Glen Iris),72
769,19058,48-Edgar St/Malvern Rd (Glen Iris),72
770,19059,47-Tooronga Rd/Malvern Rd (Glen Iris),72
771,19060,46-Shaftesbury Ave/Malvern Rd (Malvern),72
772,19061,45-Elizabeth St/Malvern Rd (Malvern),72
773,19062,44-Plant St/Malvern Rd (Malvern),72
774,19063,43-Glenferrie Rd/Malvern Rd (Malvern),72
775,19064,42-Lauriston Girls School/Malvern Rd (Armadale),72
776,19065,41-Murray St/Malvern Rd (Malvern),72
777,19066,40-Kooyong Rd/Malvern Rd (Toorak),72
778,19067,39-Densham Rd/Malvern Rd (Toorak),72
779,19068,38-Clendon Rd/Malvern Rd (Toorak),72
780,19069,37-Orrong Rd/Malvern Rd (Toorak),72
781,19070,51-Hawthorn Rd/Glenhuntly Rd (Caulfield),67
782,19071,52-Jasmine St/Glenhuntly Rd (Caulfield),67
783,19072,53-Glenhuntly Tram Depot/Glenhuntly Rd (Caulfield),67
784,19073,54-Bambra Rd/Glenhuntly Rd (Caulfield),67
785,19074,55-Fallon St/Glenhuntly Rd (Caulfield),67
786,19075,56-Kambrook Rd/Glenhuntly Rd (Caulfield),67
787,19076,57-Clarke Ave/Glenhuntly Rd (Caulfield East),67
788,19077,58-Booran Rd/Glenhuntly Rd (Caulfield East),67
789,19078,60-Glenhuntly Shops/Glenhuntly Rd (Caulfield East),67
790,19079,61-Glenhuntly Railway Station/Glenhuntly Rd (Caulfield South),67
791,19081,62-Grange Rd/Glenhuntly Rd (Caulfield East),67
792,10311,45-Glenferrie Rd/Wattletree Rd (Malvern),5
793,10371,44-Duncraig Ave/Wattletree Rd (Armadale),5
794,1083,42-Clyde St/Raleigh Rd (Maribyrnong),"82,57"
795,11285,43-Egerton Rd/Wattletree Rd (Armadale),5
796,18207,8-Franklin St/Peel St (Melbourne City),58
797,20557,68-Callantina Rd/Glenferrie Rd (Hawthorn),16
798,20558,69-South St/Glenferrie Rd (Hawthorn),16
799,20559,69-South St/Glenferrie Rd (Hawthorn),16
800,20560,70-Riversdale Rd/Glenferrie Rd (Hawthorn),16
801,20561,70-Riversdale Rd/Glenferrie Rd (Hawthorn),16
802,20562,71-Urquhart St/Glenferrie Rd (Hawthorn),16
803,20563,71-Urquhart St/Glenferrie Rd (Hawthorn),16
804,20564,72-Manningtree Rd/Glenferrie Rd (Hawthorn),16
805,20565,72-Manningtree Rd/Glenferrie Rd (Hawthorn),16
806,20566,73-Burwood Rd/Glenferrie Rd (Hawthorn),16
807,20567,73-Burwood Rd/Glenferrie Rd (Hawthorn),16
808,20568,74-Glenferrie Railway Station/Glenferrie Rd (Hawthorn),16
809,20569,74-Glenferrie Station/Glenferrie Rd (Hawthorn),16
810,20570,75-Chrystobel Cres/Glenferrie Rd (Hawthorn),16
811,20571,75-Liddiard St/Glenferrie Rd (Hawthorn),16
812,20572,76-Johnson St/Glenferrie Rd (Hawthorn),16
813,20573,76-Johnson St/Glenferrie Rd (Hawthorn),16
814,20584,77-Barkers Rd/Glenferrie Rd (Hawthorn),16
815,20589,77-Barkers Rd/Glenferrie Rd (Hawthorn),16
816,20590,78-Fitzwilliam St/Glenferrie Rd (Hawthorn),16
817,20591,78-Fitzwilliam St/Glenferrie Rd (Hawthorn),16
818,20592,79-Wellington St/Glenferrie Rd (Hawthorn),16
819,20593,79-Wellington St/Glenferrie Rd (Hawthorn),16
820,20594,80-Cotham Rd/Glenferrie Rd (Kew),16
821,20595,80-Cotham Rd/Glenferrie Rd (Kew),16
822,20597,37-Chapel St/Carlisle St (St Kilda),"3/3a,16"
823,20598,38-Balaclava Station/Carlisle St (Balaclava),"3/3a,16"
824,20599,39-Carlisle Ave/Carlisle St (St Kilda),"3/3a,16"
825,20647,40-Hotham St/Balaclava Rd (St Kilda East),"3/3a,16"
826,20648,41-Empress Rd/Balaclava Rd (Caulfield North),"3/3a,16"
827,20774,52-Hoffmans Rd/Keilor Rd (Essendon),59
828,20775,37-Buckley St/Pascoe Vale Rd (Essendon),59
829,20778,25-St James Park/Burwood Rd (Hawthorn),75
830,20779,25-St James Park/Burwood Rd (Hawthorn),75
831,20780,26-Hawthorn Railway Station/Burwood Rd (Hawthorn),75
832,20781,26-Hawthorn Railway Station/Burwood Rd (Hawthorn),75
833,20782,27-Burwood Rd/Power St (Hawthorn),75
834,20783,27-Power St/Burwood Rd (Hawthorn),75
835,20784,28-Wattle Rd/Power St (Hawthorn),75
836,20785,28-Wattle Rd/Power St (Hawthorn),75
837,20895,44-Burke Rd/Doncaster Rd (Balwyn North),48
838,20979,0-Bourke St/Spring St (Melbourne City),35
839,20980,38-Normanby Ave/High St (Thornbury),86
840,20981,D1-Etihad Stadium/La Trobe St (Docklands),"35,86,30"
841,21042,42-Allan Rd/Balaclava Rd (Caulfield North),"3/3a,16"
842,21057,43-Orrong Rd/Balaclava Rd (Caulfield North),"3/3a,16"
843,21058,44-Otira Rd/Balaclava Rd (Caulfield North),"3/3a,16"
844,21059,45-Kent Gr/Balaclava Rd (Caulfield North),"3/3a,16"
845,21060,46-Kooyong Rd/Balaclava Rd (Caulfield North),"3/3a,16"
846,21061,41-Burke Rd/Camberwell Rd (Camberwell),75
847,21062,42-Camberwell Primary School/Camberwell Rd (Camberwell),75
848,21063,42-Camberwell Primary School/Camberwell Rd (Camberwell),75
849,21064,43-Camberwell Civic Centre/Camberwell Rd (Camberwell),75
850,21065,43-Camberwell Civic Centre/Camberwell Rd (Camberwell),75
851,21066,44-Trafalgar Rd/Camberwell Rd (Camberwell),75
852,21067,44-Trafalgar Rd/Camberwell Rd (Camberwell),75
853,21068,45-Bowen St/Camberwell Rd (Camberwell),75
854,21069,45-Bowen St/Camberwell Rd (Camberwell),75
855,21070,46-Christowel St/Camberwell Rd (Camberwell),75
856,21071,46-Acheron Ave/Camberwell Rd (Camberwell),75
857,21072,47-Maple Cres/Camberwell Rd (Camberwell),75
858,21073,47-Orange Gr/Camberwell Rd (Camberwell),75
859,21074,48-Orrong Cres/Camberwell Rd (Camberwell),75
860,21075,48-Glen Iris Rd/Camberwell Rd (Camberwell),75
861,21076,49-Tyrone St/Camberwell Rd (Camberwell),75
862,21077,49-Wilson Gr/Camberwell Rd (Camberwell),75
863,21078,50-Fordham Gardens/Camberwell Rd (Camberwell),75
864,21079,50-Smith Rd/Camberwell Rd (Camberwell),75
865,21080,51-Toorak Rd/Camberwell Rd (Camberwell),75
866,21081,52-Summerhill Rd/Toorak Rd (Camberwell),75
867,21082,52-Summerhill Rd/Toorak Rd (Camberwell),75
868,21083,53-Highfield Rd/Toorak Rd (Camberwell),75
869,21084,53-Lithgow St/Toorak Rd (Camberwell),75
870,21085,54-Oberwyl Rd/Toorak Rd (Camberwell),75
871,21086,54-Grandview Ave/Toorak Rd (Camberwell),75
872,21087,55-Through Rd/Toorak Rd (Camberwell),75
873,21088,55-Beryl St/Toorak Rd (Camberwell),75
874,21089,56-Barkly St/Toorak Rd (Camberwell),75
875,21090,56-Alfred Rd/Toorak Rd (Camberwell),75
876,21091,57-Fairview Ave/Toorak Rd (Camberwell),75
877,21092,57-Queens Pde/Toorak Rd (Camberwell),75
878,21093,58-Warrigal Rd/Burwood Hwy (Camberwell),75
879,21094,58-Warrigal Rd/Burwood Hwy (Burwood),75
880,21095,59-Somers St/Burwood Hwy (Burwood),75
881,21096,59-Gilmour St/Burwood Hwy (Burwood),75
882,21097,60-Roslyn St/Burwood Hwy (Burwood),75
883,21098,60-Millicent St/Burwood Hwy (Burwood),75
884,21099,61-Presbyterian Ladies College/Burwood Hwy (Burwood),75
885,21100,61-Presbyterian Ladies College/Burwood Hwy (Burwood),75
886,21101,62-Elgar Rd/Burwood Hwy (Burwood),75
887,21102,62-Elgar Rd/Burwood Hwy (Burwood),75
888,21103,63-Deakin University/Burwood Hwy (Burwood),75
889,21104,63-Deakin University/Burwood Hwy (Burwood),75
890,21105,64-Station St/Burwood Hwy (Burwood),75
891,21106,64-Station St/Burwood Hwy (Burwood),75
892,21107,65-Starling St/Burwood Hwy (Burwood),75
893,21108,65-Starling St/Burwood Hwy (Burwood),75
894,21109,66-Middleborough Rd/Burwood Hwy (Burwood),75
895,21110,66-Middleborough Rd/Burwood Hwy (Burwood),75
896,21111,67-Old Burwood Rd/Burwood Hwy (Burwood East),75
897,21112,67-Old Burwood Rd/Burwood Hwy (Burwood East),75
898,21113,68-Benwerrin Reserve/Burwood Hwy (Burwood East),75
899,21114,68-Benwerrin Reserve/Burwood Hwy (Burwood East),75
900,21115,69-Keats St/Burwood Hwy (Burwood East),75
901,21116,69-Highview Gr/Burwood Hwy (Burwood East),75
902,21117,70-Blackburn Rd/Burwood Hwy (Burwood East),75
903,21118,70-Blackburn Rd/Burwood Hwy (Burwood East),75
904,21119,71-Sevenoaks Rd/Burwood Hwy (Burwood East),75
905,21120,71-Sevenoaks Rd/Burwood Hwy (Burwood East),75
906,21121,72-Lakeside Dr/Burwood Hwy (Burwood East),75
907,21122,72-Lakeside Dr/Burwood Hwy (Burwood East),75
908,21123,73-Springvale Rd/Burwood Hwy (Burwood East),75
909,21124,73-Springvale Rd/Burwood Hwy (Vermont South),75
910,21125,74-Stanley Rd/Burwood Hwy (Vermont South),75
911,21126,74-Stanley Rd/Burwood Hwy (Vermont South),75
912,21127,75-Vermont South Shopping Centre/Burwood Hwy (Vermont South),75
913,2113,36-Rogers St/Sydney Rd (Coburg),19
914,21196,51-Bradshaw St/Keilor Rd (Essendon),59
915,21231,1-Spencer St/Flinders St (Melbourne City),"70,75,35"
916,21232,1-Spencer St/Flinders St (Melbourne City),"70,75,35"
917,21233,2-Melbourne Aquarium/Flinders St (Melbourne City),"70,75,35"
918,21234,2-Melbourne Aquarium/Flinders St (Melbourne City),"70,75,35"
919,21961,29-Moore St/Sydney Rd (Coburg),19
920,21962,20-Barkly Square/Sydney Rd (Brunswick),19
921,21963,35-Carlisle St/St Kilda Rd (St Kilda),"67,3/3a"
922,21964,40-Camberwell Junction/Camberwell Rd (Camberwell),75
923,21966,21-Church St/Victoria St (Richmond),"12,109"
924,22100,15-Smith St/Victoria Pde (Fitzroy),"12,109"
925,22109,131-St Kilda Rd/Fitzroy St (St Kilda),"3/3a,16"
926,22110,131-St Kilda Rd/Fitzroy St (St Kilda),"3/3a,16"
927,22111,132-Princes St/Fitzroy St (St Kilda),"3/3a,16"
928,22112,132-Princes St/Fitzroy St (St Kilda),"3/3a,16"
929,22152,7-Exhibition St/Collins St (Melbourne City),"11,12,48,109"
930,22153,7-Exhibition St/Collins St (Melbourne City),"11,12,48,109"
931,22305,52-Treadwell Rd/Keilor Rd (Niddrie),59
932,2232,49-Tooronga Rd/Wattletree Rd (Malvern East),5
933,22320,48-Wests Rd/Cordite Ave (Maribyrnong),57
934,22559,22-Scotchmer St/St Georges Rd (Fitzroy North),11
935,22560,23-Hawthorn Bridge/Bridge Rd (Hawthorn),"75,48"
936,22561,23-Hawthorn Bridge/Bridge Rd (Hawthorn),"75,48"
937,22612,116-City Rd/Kings Way (Southbank),58
938,22903,7A-William Barak Bridge/Melbourne Park (Melbourne City),70
939,22904,7A-William Barak Bridge/Melbourne Park (Melbourne City),70
940,378,39-Mercy College/Sydney Rd (Coburg North),19
941,398,41-Armadale St/Wattletree Rd (Armadale),5
942,4039,128-Dorcas St/Clarendon St (South Melbourne),12
943,4084,129-Park St/Clarendon St (South Melbourne),12
944,409,42-Kooyong Rd/Wattletree Rd (Armadale),5
945,19082,63-Maroona Rd/Glenhuntly Rd (Carnegie),67
946,19083,64-Mernda Ave/Glenhuntly Rd (Carnegie),67
947,19084,65-Mimosa Rd/Glenhuntly Rd (Carnegie),67
948,19085,66-Truganini Rd/Glenhuntly Rd (Carnegie),67
949,19086,67-Centre Rd/Truganini Rd (Carnegie),67
950,19087,64-Baker St/Church St (Richmond),78
951,19088,63-Kent St/Church St (Richmond),78
952,19089,62-Highett St/Church St (Richmond),78
953,19090,61-Bridge Rd/Church St (Richmond),78
954,19091,60-Abinger St/Church St (Richmond),78
955,19405,43-Deepdene Shopping Centre/Whitehorse Rd (Balwyn),109
956,19406,44-Deepdene Park/Whitehorse Rd (Balwyn),109
957,19407,45-Hardwicke St/Whitehorse Rd (Balwyn),109
958,19408,46-Balwyn Cinema/Whitehorse Rd (Balwyn),109
959,19409,47-Balwyn Rd/Whitehorse Rd (Balwyn),109
960,19410,48-Balwyn Shopping Centre/Whitehorse Rd (Balwyn),109
961,19411,49-Northcote Ave/Whitehorse Rd (Balwyn),109
962,19412,50-Wharton St/Whitehorse Rd (Surrey Hills),109
963,19413,51-Narrak Rd/Whitehorse Rd (Balwyn),109
964,19414,53-Union Rd/Whitehorse Rd (Balwyn),109
965,19416,54-Inglisby Rd/Whitehorse Rd (Mont Albert),109
966,19417,55-Hood St/Whitehorse Rd (Mont Albert),109
967,19418,56-Elgar Rd/Whitehorse Rd (Box Hill),109
968,19419,57-Nelson Rd/Whitehorse Rd (Box Hill),109
969,19421,61-Elgar Rd/Riversdale Rd (Surrey Hills),70
970,19422,60-Ferndale St/Riversdale Rd (Surrey Hills),70
971,19423,59-Alandale St/Riversdale Rd (Surrey Hills),70
972,19424,58-Wattle Park/Riversdale Rd (Surrey Hills),70
973,19425,57-Glendale St/Riversdale Rd (Surrey Hills),70
974,19426,56-Warrigal Rd/Riversdale Rd (Surrey Hills),70
975,19427,55-Union Rd/Riversdale Rd (Surrey Hills),70
976,19428,54-Through Rd/Riversdale Rd (Surrey Hills),70
977,19429,53-Essex Rd/Riversdale Rd (Surrey Hills),70
978,19430,52-Lockhart St/Riversdale Rd (Camberwell),70
979,19431,51-Highfield Rd/Riversdale Rd (Canterbury),70
980,19432,50-Wattle Valley Rd/Riversdale Rd (Canterbury),70
981,19433,49-Glyndon Rd/Riversdale Rd (Camberwell),70
982,19434,48-Cooloongatta Rd/Riversdale Rd (Camberwell),70
983,19435,47-Willow Gr/Riversdale Rd (Canterbury),70
984,19436,46-Spencer Rd/Riversdale Rd (Canterbury),70
985,19438,44-Derby St/Riversdale Rd (Camberwell),70
986,19439,43-Trafalgar Rd/Riversdale Rd (Camberwell),70
987,19440,42-Fermanagh Rd/Riversdale Rd (Camberwell),70
988,19441,41-Camberwell Market/517 Riversdale Rd (Camberwell),70
989,19442,40-Camberwell Junction/Riversdale Rd (Hawthorn East),"75,70"
990,19443,39-Camberwell Tram Depot/Riversdale Rd (Hawthorn East),"75,70"
991,19444,38-Hastings Rd/Riversdale Rd (Hawthorn East),"75,70"
992,19445,37-Tooronga Rd/Riversdale Rd (Hawthorn East),"75,70"
993,19446,36-Auburn Rd/Riversdale Rd (Hawthorn East),"75,70"
994,19447,35-Robinson Rd/Riversdale Rd (Hawthorn),"75,70"
995,19448,34-Kooyongkoot Rd/Riversdale Rd (Hawthorn),"75,70"
996,19449,33-Berkeley St/Riversdale Rd (Hawthorn),"75,70"
997,19450,32-Glenferrie Rd/Riversdale Rd (Hawthorn),"75,70"
998,19451,31-Fordholm Rd/Riversdale Rd (Hawthorn),"75,70"
999,19452,30-Through St/Riversdale Rd (Hawthorn),"75,70"
1000,19454,29-Power St/Riversdale Rd (Hawthorn),"75,70"
1001,19456,18-Yarra Bvd/Swan St (Burnley),70
1002,19457,17-Madden Gr/Swan St (Burnley),70
1003,19458,16-Park Gr/Swan St (Burnley),70
1004,19459,15-Stawell St/Swan St (Richmond),70
1005,19460,14-Burnley St/Swan St (Richmond),70
1006,19461,13-Edinburgh St/Swan St (Richmond),70
1007,19462,12-Coppin St/Swan St (Richmond),70
1008,19463,11-Church St/Swan St (Richmond),70
1009,19464,10-Swan Street Shopping Centre/Swan St (Richmond),70
1010,19465,9-Lennox St/Swan St (Richmond),70
1011,19466,8-Richmond Station/Swan St (Cremorne),70
1012,19467,43-Brewster St/Mt Alexander Rd (Essendon),59
1013,19468,44-Thorn St/Mt Alexander Rd (Essendon),59
1014,19469,45-Glass St/Mt Alexander Rd (Essendon),59
1015,19470,47-Mt Alexander Rd/Keilor Rd (Essendon),59
1016,19471,48-Service St/Keilor Rd (Essendon North),59
1017,19472,49-Essendon North PS/Keilor Rd (Essendon North),59
1018,19473,50-Cooper St/Keilor Rd (Essendon North),59
1019,19475,53-Keilor Rd/Matthews Ave (Niddrie),59
1020,19477,54-Fullarton Rd/Matthews Ave (Niddrie),59
1021,19478,55-Cameron St/Matthews Ave (Airport West),59
1022,19479,56-Earl St/Matthews Ave (Airport West),59
1023,19480,57-Hawker St/Matthews Ave (Airport West),59
1024,19481,58-Marshall Rd/Matthews Ave (Airport West),59
1025,19482,59-Airport West/Matthews Ave (Airport West),59
1026,19489,1-Melbourne University/Swanston St (Carlton),"16,3/3a,5,6,64,67,72,1"
1027,19491,3-Lincoln Square/Swanston St (Carlton),"16,3/3a,5,6,64,67,72,1"
1028,19492,4-Queensberry St/Swanston St (Carlton),"16,3/3a,5,6,64,67,72,1"
1029,19494,7-RMIT University/Swanston St (Melbourne City),"16,3/3a,5,6,64,67,72,1"
1030,19495,8-Melbourne Central Station/Swanston St (Melbourne City),"16,3/3a,5,6,64,67,72,1"
1031,19497,10-Bourke Street Mall/Swanston St (Melbourne City),"16,3/3a,5,6,64,67,72,1"
1032,19498,11-City Square/Swanston St (Melbourne City),"16,3/3a,5,6,64,67,72,1"
1033,19499,13-Federation Square/Swanston St (Melbourne City),"16,3/3a,5,6,64,67,72,1"
1034,19500,14-Arts Precinct/St Kilda Rd (Southbank),"16,3/3a,5,6,64,67,72,1"
1035,19502,17-Grant St-Police Memorial/St Kilda Rd (Southbank),"3/3a,5,6,64,67,72,16"
1036,19504,19-Shrine of Remembrance/St Kilda Rd (Melbourne City),"3/3a,5,6,64,67,72,16"
1037,19505,20-Park Street/St Kilda Rd (Melbourne City),"3/3a,5,6,64,67,72,16"
1038,19528,22-Toorak Rd/St Kilda Rd (Melbourne City),"3/3a,5,6,64,67,72,16"
1039,19539,23-Arthur St/St Kilda Rd (Melbourne City),"3/3a,5,6,64,67,72,16"
1040,19560,24-Leopold St/St Kilda Rd (South Melbourne),"3/3a,5,6,64,67,72,16"
1041,19561,25-Commercial Rd/St Kilda Rd (South Melbourne),"3/3a,5,6,64,67,72,16"
1042,19562,26-Moubray St/St Kilda Rd (South Melbourne),"3/3a,5,6,64,67,16"
1043,19563,27-High St/St Kilda Rd (South Melbourne),"3/3a,5,6,64,67,16"
1044,19565,29-Union St/St Kilda Rd (St Kilda),"3/3a,5,64,67,16"
1045,19566,30-St Kilda Junction/St Kilda Rd (St Kilda),"3/3a,5,64,67,16"
1046,19567,31-Queens Way/Queens Way (St Kilda),"64,5"
1047,19568,30-St Kilda Junction/St Kilda Rd (St Kilda),"3/3a,5,64,67,16"
1048,19569,29-Union St/St Kilda Rd (St Kilda),"3/3a,5,64,67,16"
1049,19571,27-Lorne St/St Kilda Rd (Melbourne City),"3/3a,5,6,64,67,16"
1050,19572,26-Beatrice St/St Kilda Rd (Melbourne City),"3/3a,5,6,64,67,16"
1051,19573,25-Commercial Rd/St Kilda Rd (Melbourne City),"3/3a,5,6,64,67,72,16"
1052,19574,24-Leopold St/St Kilda Rd (Melbourne City),"3/3a,5,6,64,67,72,16"
1053,19575,23-Arthur St/St Kilda Rd (Melbourne City),"3/3a,5,6,64,67,72,16"
1054,19589,13-Curzon St/Queensberry St (North Melbourne),57
1055,19590,12-North Melbourne Town Hall/Errol St (North Melbourne),57
1056,19591,14-Royal Melbourne Hospital/Flemington Rd (North Melbourne),"59,58"
1057,19592,16-Harker St/Flemington Rd (North Melbourne),"59,58"
1058,19594,19-Royal Childrens Hospital/Flemington Rd (North Melbourne),"59,58"
1059,19595,20-Melrose St/Flemington Rd (North Melbourne),"59,57"
1060,19597,22-Flemington Bridge Station/Flemington Rd (North Melbourne),59
1061,19598,23-Flemington Community Centre/Mt Alexander Rd (Flemington),59
1062,19599,24-Mooltan St/Mt Alexander Rd (Flemington),59
1063,19600,25-Mount Alexander College/Mt Alexander Rd (Travancore),59
1064,19601,26-Wellington St/Mt Alexander Rd (Flemington),59
1065,19602,27-Essendon Tram Depot/Mt Alexander Rd (Ascot Vale),59
1066,19603,28-Middle St/Mt Alexander Rd (Ascot Vale),59
1067,19604,29-Warrick St/Mt Alexander Rd (Ascot Vale),59
1068,19605,30-Maribyrnong Rd/Mt Alexander Rd (Ascot Vale),59
1069,19606,31-Montgomery St/Mt Alexander Rd (Moonee Ponds),59
1070,19608,32-Moonee Ponds Junction/Pascoe Vale Rd (Moonee Ponds),"82,59"
1071,19609,34-Moonee Valley Civic Centre/Pascoe Vale Rd (Moonee Ponds),59
1072,19623,35-Queens Park/Pascoe Vale Rd (Moonee Ponds),59
1073,19624,36-Murray St/Pascoe Vale Rd (Moonee Ponds),59
1074,19625,37-Buckley St/Pascoe Vale Rd (Moonee Ponds),59
1075,19626,38-Fletcher St/Pascoe Vale Rd (Essendon),59
1076,19627,39-Hoddle St/Fletcher St (Essendon),59
1077,19628,40-Nicholson St/Fletcher St (Essendon),59
1078,19657,41-Fletcher St/Napier St (Essendon),59
1079,19658,42-Shamrock St/Mt Alexander Rd (Essendon),59
1080,19659,43-Thistle St/Mt Alexander Rd (Essendon),59
1081,19660,44-Thorn St/Mt Alexander Rd (Essendon),59
1082,19661,45-Leake St/Mt Alexander Rd (Essendon),59
1083,19662,46-Lincoln Rd/Mt Alexander Rd (Essendon),59
1084,19663,47-Mt Alexander Rd/Keilor Rd (Essendon),59
1085,19664,48-Service St/Keilor Rd (Essendon),59
1086,19665,49-Essendon North Primary School/Keilor Rd (Essendon North),59
1087,19666,50-Cooper St/Keilor Rd (Essendon),59
1088,19667,51-Bradshaw St/Keilor Rd (Essendon),59
1089,19669,53A-Matthews Ave/Keilor Rd (Essendon),59
1090,19670,53-Keilor Rd/Matthews Ave (Niddrie),59
1091,19671,54-Fullarton Rd/Matthews Ave (Airport West),59
1092,19672,55-Cameron St/Matthews Ave (Airport West),59
1093,19673,56-Earl St/Matthews Ave (Airport West),59
1094,19674,57-Hawker St/Matthews Ave (Airport West),59
1095,19675,58-Marshall Rd/Matthews Ave (Airport West),59
1096,19676,22-Toorak Rd/St Kilda Rd (Melbourne City),"3/3a,5,58,6,64,67,72,16"
1097,19678,20-Park Street/St Kilda Rd (Melbourne City),"3/3a,5,6,64,67,72,16"
1098,19679,19-Shrine of Remembrance/St Kilda Rd (Melbourne City),"3/3a,5,6,64,67,72,16"
1099,19681,17-Grant St-Police Memorial/St Kilda Rd (Southbank),"3/3a,5,6,64,67,72,16"
1100,19684,14-Arts Precinct/St Kilda Rd (Southbank),"16,3/3a,5,6,64,67,72,1"
1101,19685,13-Federation Square/Swanston St (Melbourne City),"16,3/3a,5,6,64,67,72,1"
1102,19686,11-City Square/Swanston St (Melbourne City),"16,3/3a,5,6,64,67,72,1"
1103,19687,10-Bourke Street Mall/Swanston St (Melbourne City),"16,3/3a,5,6,64,67,72,1"
1104,19689,8-Melbourne Central Station/Swanston St (Melbourne City),"16,3/3a,5,6,64,67,72,1"
1105,19092,59-St Ignatius Church/Church St (Richmond),78
1106,19093,58-Gipps St/Church St (Richmond),78
1107,19094,57-Swan St/Church St (Richmond),78
1108,19095,56-East Richmond Railway Station/Church St (Richmond),78
1109,19096,55-Gibbons St/Church St (Richmond),78
1110,19097,54-Balmain St/Church St (Richmond),78
1111,19098,53-Howard St/Church St (Richmond),78
1112,19100,51-Malcolm St/Chapel St (South Yarra),78
1113,19101,50-Toorak Rd/Chapel St (South Yarra),78
1114,19102,49-Arthur St/Chapel St (South Yarra),78
1115,19103,48-Wilson St/Chapel St (South Yarra),78
1116,19104,47-Malvern Rd/Chapel St (South Yarra),78
1117,19105,46-Chatham St/Chapel St (Prahran),78
1118,19106,45-High St/Chapel St (Prahran),78
1119,19107,44-Duke St/Chapel St (Prahran),78
1120,19108,43-Windsor Railway Station/Chapel St (Prahran),78
1121,19109,42-Dandenong Rd/Chapel St (Prahran),78
1122,19110,41-St Michaels Grammar School/Chapel St (St Kilda East),78
1123,19111,40-Alma Rd/Chapel St (St Kilda East),78
1124,19112,39-Argyle St/Chapel St (St Kilda East),78
1125,19113,38-Inkerman St/Chapel St (St Kilda East),78
1126,19115,36-St Kilda Town Hall/Carlisle St (St Kilda),"3/3a,16"
1127,19116,37-Carlisle St/Chapel St (St Kilda),78
1128,19118,35-Brighton Rd/Carlisle St (St Kilda),"3/3a,16"
1129,19119,34-Mitchell St/Carlisle St (St Kilda),"3/3a,16"
1130,19123,36-Canterbury Rd/Malvern Rd (Toorak),72
1131,19124,35-Lorne Rd/Malvern Rd (Toorak),72
1132,19125,34-Williams Rd/Malvern Rd (Toorak),72
1133,19126,33-Hobson St/Malvern Rd (South Yarra),72
1134,19127,32-Bendigo St/Malvern Rd (Prahran),72
1135,19128,31-Chapel St/Malvern Rd (Prahran),72
1136,19129,30-Prahran Market/Commercial Rd (Prahran),72
1137,19130,29-Porter St/Commercial Rd (Prahran),72
1138,19131,28-Braille Library/Commercial Rd (Prahran),72
1139,19132,27-Punt Rd/Commercial Rd (Prahran),72
1140,19133,26-Alfred Hospital/Commercial Rd (Prahran),72
1141,19135,33-Barkly St/Carlisle St (St Kilda),"3/3a,16"
1142,19136,32-Havelock St/Carlisle St (St Kilda),"3/3a,16"
1143,19250,13-Curzon St/Queensberry St (North Melbourne),57
1144,19251,12-North Melbourne Town Hall/Queensberry St (North Melbourne),57
1145,19253,14-Royal Melbourne Hospital/Flemington Rd (Parkville),"59,58"
1146,19254,16-Harker St/Flemington Rd (Parkville),"59,58"
1147,19256,19-Royal Childrens Hospital/Flemington Rd (North Melbourne),"59,58"
1148,19259,22-Flemington Bridge Station/Flemington Rd (North Melbourne),59
1149,19260,23-Flemington Community Centre/Mt Alexander Rd (Flemington),59
1150,19261,24-Mooltan St/Mt Alexander Rd (Flemington),59
1151,19262,25-Mount Alexander College/Mt Alexander Rd (Flemington),59
1152,19263,26-Wellington St/Mt Alexander Rd (Flemington),59
1153,19264,27-Essendon Tram Depot/Mt Alexander Rd (Ascot Vale),59
1154,19265,28-Middle St/Mt Alexander Rd (Ascot Vale),59
1155,19266,29-Warrick St/Mt Alexander Rd (Ascot Vale),59
1156,19267,30-Ormond Rd/Mt Alexander Rd (Moonee Ponds),59
1157,19268,31-Montgomery St/Mt Alexander Rd (Moonee Ponds),59
1158,19269,32-Moonee Ponds Junction/Pascoe Vale Rd (Moonee Ponds),"82,59"
1159,19270,34-Moonee Valley Civic Centre/Pascoe Vale Rd (Moonee Ponds),59
1160,19271,35-Queens Park/Pascoe Vale Rd (Moonee Ponds),59
1161,19272,36-Salisbury St/Pascoe Vale Rd (Moonee Ponds),59
1162,19274,38-Pascoe Vale Rd/Fletcher St (Essendon),59
1163,19275,39-Hoddle St/Fletcher St (Essendon),59
1164,19276,40-Nicholson St/Fletcher St (Essendon),59
1165,19277,41-Fletcher St/Napier St (Essendon),59
1166,19278,8-Richmond Station/Swan St (Richmond),70
1167,19279,9-Lennox St/Swan St (Richmond),70
1168,19280,10-Swan Street Shopping Centre/Swan St (Richmond),70
1169,19281,11-Church St/Swan St (Richmond),70
1170,19282,12-Coppin St/Swan St (Richmond),70
1171,19283,13-Edinburgh St/Swan St (Burnley),70
1172,19294,14-Burnley St/Swan St (Burnley),70
1173,19295,15-Stawell St/Swan St (Burnley),70
1174,19296,16-Park Gr/Swan St (Burnley),70
1175,19297,17-Madden Gr/Swan St (Burnley),70
1176,19298,18-Yarra Bvd/Swan St (Burnley),70
1177,19299,29-Power St/Riversdale Rd (Hawthorn),"75,70"
1178,19300,30-Through St/Riversdale Rd (Hawthorn),"75,70"
1179,19301,31-Fordholm Rd/Riversdale Rd (Hawthorn),"75,70"
1180,19302,32-Glenferrie Rd/Riversdale Rd (Hawthorn),"75,70"
1181,19303,33-Berkeley St/Riversdale Rd (Hawthorn),"75,70"
1182,19304,125-Port Junction/79 Whiteman St (Southbank),"12,96,109"
1183,19305,22-Dorcas St/Eastern Rd (South Melbourne),1
1184,19306,23-Moray St/Park St (South Melbourne),1
1185,19307,24-Clarendon St/Park St (South Melbourne),1
1186,19308,25-Cecil St/Park St (South Melbourne),1
1187,19309,26-Ferrars St/Park St (South Melbourne),1
1188,19310,27-Montague St/Park St (South Melbourne),1
1189,19311,28-Bridport St/Montague St (Albert Park),1
1190,19312,29-Bridport St/Victoria Ave (Albert Park),1
1191,19313,30-Richardson St/Victoria Ave (Albert Park),1
1192,19314,31-Graham St/Victoria Ave (Albert Park),1
1193,19322,124-Walsh St/Toorak Rd (South Yarra),58
1194,19323,125-Punt Rd/Toorak Rd (South Yarra),58
1195,19324,126-Myrtle St/Toorak Rd (South Yarra),58
1196,19325,127-South Yarra Railway Station/Toorak Rd (South Yarra),58
1197,19326,128-Chapel St/Toorak Rd (South Yarra),58
1198,19327,129-Tivoli Rd/Toorak Rd (South Yarra),58
1199,19328,130-Hawksburn Rd/Toorak Rd (South Yarra),58
1200,19329,131-Williams Rd/Toorak Rd (South Yarra),58
1201,19330,132-Toorak Village/Toorak Rd (Toorak),58
1202,19331,133-Grange Rd/Toorak Rd (Toorak),58
1203,19332,134-Orrong Rd/Toorak Rd (Toorak),58
1204,19333,135-Woorigoleen Rd/Toorak Rd (Toorak),58
1205,19334,136-Irving Rd/Toorak Rd (Toorak),58
1206,19335,137-Kooyong Rd/Toorak Rd (Toorak),58
1207,19336,138-Moonga Rd/Toorak Rd (Toorak),58
1208,19338,139-Glenferrie Rd/Toorak Rd (Toorak),58
1209,19340,112-Lygon St/Elgin St (Carlton),"6,1"
1210,19341,113-Lytton St/Lygon St (Carlton),"6,1"
1211,19342,114-Princes St/Lygon St (Carlton North),"6,1"
1212,19343,115-Melbourne Cemetery/Lygon St (Carlton North),"6,1"
1213,19344,116-Fenwick St/Lygon St (Carlton North),"6,1"
1214,19345,117-Richardson St/Lygon St (Carlton North),"6,1"
1215,19346,118-Pigdon St/Lygon St (Carlton North),"6,1"
1216,19347,119-Park St/Lygon St (Carlton North),"6,1"
1217,19348,120-Brunswick Rd/Lygon St (Brunswick),"6,1"
1218,19349,121-Weston St/Lygon St (Brunswick East),"6,1"
1219,19350,122-Glenlyon Rd/Lygon St (Brunswick East),"6,1"
1220,19351,123-Albert St/Lygon St (Brunswick East),"6,1"
1221,19352,124-Victoria St/Lygon St (Brunswick East),"6,1"
1222,19353,125-Blyth St/Lygon St (Brunswick East),"6,1"
1223,19354,126-Stewart St/Lygon St (Brunswick East),"6,1"
1224,19355,127-Albion St/Holmes St (Brunswick East),"6,1"
1225,19356,128-Mitchell St/Holmes St (Brunswick East),"6,1"
1226,19357,129-Moreland Rd/Nicholson St (Coburg),1
1227,19358,129-Moreland Rd/Holmes St (Brunswick),6
1228,19359,130-Barrow St/Moreland Rd (Coburg),6
1229,19360,131-De Carle St/Moreland Rd (Coburg),6
1230,19361,132-Sydney Rd/Moreland Rd (Coburg),6
1231,19362,133-Moreland Station/Cameron St (Coburg),6
1232,19363,130-The Avenue/Nicholson St (Coburg),1
1233,19364,131-Rennie St/Nicholson St (Coburg),1
1234,19365,132-Crozier St/Nicholson St (Coburg),1
1235,19366,133-Harding St/Nicholson St (Coburg),1
1236,19367,134-Merribell Ave/Nicholson St (Coburg),1
1237,19368,135-Bell St/Nicholson St (Coburg),1
1238,19369,125A-Southbank Tram Depot/Light Rail (South Melbourne),"12,109"
1239,19370,126-Montague St/Light Rail (South Melbourne),109
1240,19371,127-North Port Station/Light Rail (Port Melbourne),109
1241,19372,128-Graham St/Light Rail (Port Melbourne),109
1242,19374,13-Lansdowne St/Victoria Pde (Fitzroy),"12,109"
1243,19376,42-Grice Cres/Mt Alexander Rd (Essendon),59
1244,19377,16-Wellington St/Victoria Pde (Collingwood),"12,109"
1245,19379,18-Hoddle St/Victoria Pde (Collingwood),"12,109"
1246,19381,19-North Richmond Railway Station/Victoria St (Abbotsford),"12,109"
1247,19382,20-Lennox St/Victoria St (Abbotsford),"12,109"
1248,19383,21-Church St/Victoria St (Abbotsford),"12,109"
1249,19384,22-McKay St/Victoria St (Richmond),"12,109"
1250,19385,23-Flockhart St/Victoria St (Abbotsford),"12,109"
1251,19386,24-Burnley St/Victoria St (Richmond),"12,109"
1252,19387,25-River Bvd/Victoria St (Richmond),109
1253,19389,27-Findon Cres/Barkers Rd (Kew),109
1254,19391,29-High St/Barkers Rd (Kew),109
1255,19393,31-Stevenson St/High St (Kew),"48,109"
1256,19394,32-Kew Junction/High St (Kew),"48,109"
1257,19395,33-Kew Shopping Centre/High St (Kew),"48,109"
1258,19396,34-QPO/Cotham Rd (Kew),109
1259,19397,35-Charles St/Cotham Rd (Kew),109
1260,19398,36-Glenferrie Rd/Cotham Rd (Kew),109
1261,19399,37-Belmont Ave/Cotham Rd (Kew),109
1262,19400,38-Marshall Ave/Cotham Rd (Kew),109
1263,19401,39-Florence Ave/Cotham Rd (Kew),109
1264,19402,40-St George's Hospital/Cotham Rd (Kew),109
1265,19403,41-Kew Traffic School/Cotham Rd (Kew),109
1266,19404,42-Burke Rd/Cotham Rd (Kew),109
1267,19691,7-RMIT University/Swanston St (Melbourne City),"16,3/3a,5,6,64,67,72,1"
1268,19693,4-Queensberry St/Swanston St (Carlton),"16,3/3a,5,6,64,67,72,1"
1269,19694,3-Lincoln Square/Swanston St (Carlton),"16,3/3a,5,6,64,67,72,1"
1270,19696,1-Melbourne University/Swanston St (Carlton),"16,3/3a,5,6,64,67,72,1"
1271,19697,34-Inkerman St/St Kilda Rd (St Kilda),"67,3/3a"
1272,19698,34-Inkerman St/St Kilda Rd (St Kilda),"67,3/3a"
1273,19699,15-Murphy St/Flemington Rd (North Melbourne),"59,58"
1274,19700,33-Argyle St/St Kilda Rd (St Kilda),"67,3/3a"
1275,19701,33-Argyle St/St Kilda Rd (St Kilda),"67,3/3a"
1276,19702,32-Alma Rd/St Kilda Rd (St Kilda),"67,3/3a"
1277,19703,32-Alma Rd/St Kilda Rd (St Kilda),"67,3/3a"
1278,19704,31-Barkly St/St Kilda Rd (St Kilda),"67,3/3a"
1279,19705,31-Barkly St/St Kilda Rd (St Kilda),"67,3/3a"
1280,19706,15-Epworth Hospital/Bridge Rd (Richmond),"75,48"
1281,19708,17-Bosisto St/Bridge Rd (Richmond),"75,48"
1282,19709,18-Church St/Bridge Rd (Richmond),"75,48"
1283,19710,19-Richmond Town Hall/Bridge Rd (Richmond),"75,48"
1284,19711,20-Coppin St/Bridge Rd (Richmond),"75,48"
1285,19712,21-Burnley St/Bridge Rd (Richmond),"75,48"
1286,19713,22-Yarra Bvd/Bridge Rd (Richmond),"75,48"
1287,19714,22-Yarra Bvd/Bridge Rd (Richmond),"75,48"
1288,19715,21-Burnley St/Bridge Rd (Richmond),"75,48"
1289,19716,20-Coppin St/Bridge Rd (Richmond),"75,48"
1290,19717,19-Richmond Town Hall/Bridge Rd (Richmond),"75,48"
1291,19718,18-Church St/Bridge Rd (Richmond),"75,48"
1292,19719,17-Waltham St/Bridge Rd (Richmond),"75,48"
1293,19721,125A-Southbank Tram Depot/Light Rail (South Melbourne),"12,109"
1294,19722,126-Montague St/Light Rail (South Melbourne),109
1295,19723,127-North Port Station/Light Rail (Port Melbourne),109
1296,19724,128-Graham St/Light Rail (Port Melbourne),109
1297,19725,129-Beacon Cove/Light Rail (Port Melbourne),109
1298,19726,13-Lansdowne St/Victoria Pde (East Melbourne),"12,109"
1299,19728,15-Smith St/Victoria Pde (East Melbourne),"12,109"
1300,19729,16-Wellington St/Victoria Pde (East Melbourne),"12,109"
1301,19731,18-Hoddle St/Victoria Pde (Collingwood),"12,109"
1302,19732,19-North Richmond Railway Station/Victoria St (Richmond),"12,109"
1303,19733,20-Lennox St/Victoria St (Richmond),"12,109"
1304,19734,15-Epworth Hospital/Bridge Rd (Richmond),"75,48"
1305,19735,22-McKay St/Victoria St (Richmond),"12,109"
1306,19736,23-Leslie St/Victoria St (Richmond),"12,109"
1307,19737,24-Burnley St/Victoria St (Richmond),"12,109"
1308,19738,25-River Bvd/Victoria St (Richmond),109
1309,19740,27-Findon St/Barkers Rd (Hawthorn),109
1310,19742,29-Barkers Rd/High St (Kew),"48,109"
1311,19744,31-Stevenson St/High St (Kew),"48,109"
1312,19745,32-Kew Junction/High St (Kew),"48,109"
1313,19746,34-High St/Cotham Rd (Kew),109
1314,19747,35-Charles St/Cotham Rd (Kew),109
1315,19748,36-Glenferrie Rd/Cotham Rd (Kew),109
1316,19749,37-Belmont Ave/Cotham Rd (Kew),109
1317,19750,38-Marshall Ave/Cotham Rd (Kew),109
1318,19751,39-Thomas St/Cotham Rd (Kew),109
1319,19752,40-St George's Hospital/Cotham Rd (Kew),109
1320,19753,41-Kew Traffic School/Cotham Rd (Kew),109
1321,19754,34-Kooyongkoot Rd/Riversdale Rd (Hawthorn),"75,70"
1322,19755,35-Robinson Rd/Riversdale Rd (Hawthorn),"75,70"
1323,19756,36-Auburn Rd/Riversdale Rd (Hawthorn East),"75,70"
1324,19757,37-Tooronga Rd/Riversdale Rd (Hawthorn East),"75,70"
1325,19758,38-Hastings Rd/Riversdale Rd (Hawthorn East),"75,70"
1326,19759,39-Camberwell Tram Depot/Riversdale Rd (Hawthorn East),"75,70"
1327,19760,40-Camberwell Junction/Riversdale Rd (Camberwell),70
1328,19761,42-Fermanagh Rd/Riversdale Rd (Camberwell),70
1329,19762,43-Trafalgar Rd/Riversdale Rd (Camberwell),70
1330,19763,44-Derby St/Riversdale Rd (Camberwell),70
1331,19764,46-Spencer Rd/Riversdale Rd (Camberwell),70
1332,19765,47-Willow Gr/Riversdale Rd (Camberwell),70
1333,19766,48-Cooloongatta Rd/Riversdale Rd (Camberwell),70
1334,19767,49-Glyndon Rd/Riversdale Rd (Camberwell),70
1335,19768,50-Wattle Valley Rd/Riversdale Rd (Canterbury),70
1336,19769,51-Highfield Rd/Riversdale Rd (Camberwell),70
1337,19770,52-Lockhart St/Riversdale Rd (Camberwell),70
1338,19771,53-Essex Rd/Riversdale Rd (Camberwell),70
1339,19772,54-Through Rd/Riversdale Rd (Camberwell),70
1340,19773,55-Union Rd/Riversdale Rd (Canterbury),70
1341,19774,56-Warrigal Rd/Riversdale Rd (Surrey Hills),70
1342,19775,57-Glendale St/Riversdale Rd (Surrey Hills),70
1343,19776,58-Wattle Park/1013 Riversdale Rd (Surrey Hills),70
1344,19777,59-Alandale St/Riversdale Rd (Surrey Hills),70
1345,19778,42-Burke Rd/Whitehorse Rd (Balwyn),109
1346,19779,60-Ferndale St/Riversdale Rd (Surrey Hills),70
1347,19781,58-Box Hill Central/Whitehorse Rd (Box Hill),109
1348,19782,57-Nelson Rd/Whitehorse Rd (Box Hill),109
1349,19783,56-Elgar Rd/Whitehorse Rd (Box Hill),109
1350,19784,55-Hood St/Whitehorse Rd (Mont Albert),109
1351,19785,54-Inglisby Rd/Whitehorse Rd (Mont Albert),109
1352,19786,53-Union Rd/Whitehorse Rd (Surrey Hills),109
1353,20482,15-Murphy St/Flemington Rd (North Melbourne),"59,58"
1354,20490,12-Flemington Rd/Peel St (North Melbourne),58
1355,20491,12-Flemington Rd/Peel St (North Melbourne),58
1356,20492,11-Queensberry St/Peel St (North Melbourne),58
1357,20493,11-Queensberry St/Peel St (North Melbourne),58
1358,20494,126-City Rd/Light Rail (South Melbourne),96
1359,20495,126-City Rd/Light Rail (South Melbourne),96
1360,20496,127-South Melbourne Station/Light Rail (South Melbourne),96
1361,20497,127-South Melbourne Station/Light Rail (South Melbourne),96
1362,20498,128-Albert Park Station/Light Rail (South Melbourne),96
1363,20499,128-Albert Park Station/Light Rail (South Melbourne),96
1364,20500,129-Melbourne Sports and Aquatic Centre/Light Rail (Middle Park),96
1365,20501,129-Melbourne Sports and Aquatic Centre/Light Rail (Middle Park),96
1366,20502,130-Middle Park Station/Light Rail (Middle Park),96
1367,20503,130-Middle Park Station/Light Rail (Middle Park),96
1368,20504,131-Fraser St/Light Rail (Middle Park),96
1369,20505,131-Fraser St/Light Rail (Middle Park),96
1370,20506,132-St Kilda Station/Fitzroy St (St Kilda),96
1371,20507,132-St Kilda Station/Fitzroy St (St Kilda),96
1372,20508,133-Canterbury Rd/Fitzroy St (St Kilda),"3/3a,96,16"
1373,20509,133-Canterbury Rd/Fitzroy St (St Kilda),"3/3a,96,16"
1374,20510,134-Park St/Fitzroy St (St Kilda),"3/3a,96,16"
1375,20511,134-Park St/Fitzroy St (St Kilda),"3/3a,96,16"
1376,20512,135-Acland St/Fitzroy St (St Kilda),"3/3a,96,16"
1377,20513,135-Jacka Bvd/Fitzroy St (St Kilda),"3/3a,96,16"
1378,20514,136-Alfred Square/The Esplanade (St Kilda),"3/3a,96,16"
1379,20515,136-Alfred Square/The Esplanade (St Kilda),"3/3a,96,16"
1380,20518,138-Luna Park/The Esplanade (St Kilda),"3/3a,96,16"
1381,20519,138-Luna Park/The Esplanade (St Kilda),"3/3a,96,16"
1382,20520,139-Belford St/Acland St (St Kilda),96
1383,20522,139-Belford St/Acland St (St Kilda),96
1384,20523,48-Hawthorn Rd/Dandenong Rd (Malvern),16
1385,20524,48-Dandenong Rd/Glenferrie Rd (Malvern),16
1386,20525,52-Dandenong Rd/Glenferrie Rd (Malvern),16
1387,20526,53-Malvern Railway Station/Glenferrie Rd (Malvern),16
1388,20527,53-Malvern Railway Station/Glenferrie Rd (Malvern),16
1389,20528,54-Wattletree Rd/Glenferrie Rd (Malvern),16
1390,20529,54-Wattletree Rd/Glenferrie Rd (Malvern),16
1391,20530,55-Llaneast St/Glenferrie Rd (Malvern),16
1392,20531,55-Edsall St/Glenferrie Rd (Malvern),16
1393,20532,56-Malvern Tram Depot/Glenferrie Rd (Malvern),16
1394,20533,56-Malvern Tram Depot/Glenferrie Rd (Malvern),16
1395,20534,57-High St/Glenferrie Rd (Malvern),16
1396,20535,57-High St/Glenferrie Rd (Malvern),16
1397,20536,58-Bell St/Glenferrie Rd (Malvern),16
1398,20537,58-Sorrett Ave/Glenferrie Rd (Malvern),16
1399,20538,59-Malvern Rd/Glenferrie Rd (Malvern),16
1400,20539,59-Malvern Rd/Glenferrie Rd (Malvern),16
1401,20540,60-Stonnington Pl/Glenferrie Rd (Malvern),16
1402,20541,60-Stonnington Pl/Glenferrie Rd (Malvern),16
1403,20542,61-Moorakyne Ave/Glenferrie Rd (Malvern),16
1404,20543,61-Moorakyne Ave/Glenferrie Rd (Malvern),16
1405,20544,62-Mayfield Ave/Glenferrie Rd (Malvern),16
1406,20545,62-Mayfield Ave/Glenferrie Rd (Malvern),16
1407,20546,63-Toorak Rd/Glenferrie Rd (Malvern),16
1408,20547,63-Toorak Rd/Glenferrie Rd (Kooyong),16
1409,20548,64-Mernda Rd/Glenferrie Rd (Kooyong),16
1410,4124,127-York St/Clarendon St (South Melbourne),12
1411,4125,126-City Rd/Clarendon St (South Melbourne),12
1412,4126,130a-Raglan St/Clarendon St (South Melbourne),12
1413,4127,130-Clarendon St/Albert Rd (South Melbourne),12
1414,4128,131-Melbourne Sports & Aquatic Centre/Albert Rd (Albert Park),12
1415,4129,132-Kerferd Rd/Canterbury Rd (Albert Park),12
1416,4130,133-Canterbury Rd/Mills St (Middle Park),12
1417,4131,134-Carter St/Mills St (Middle Park),12
1418,4132,135-Richardson St/Mills St (Middle Park),12
1419,4133,136-Mills St/Danks St (Middle Park),12
1420,4134,137-Harold St/Danks St (Middle Park),12
1421,4135,143-Fitzroy St/Park St (St Kilda),12
1422,4136,142-Mary St/Park St (St Kilda West),12
1423,4137,141-Deakin St/Park St (St Kilda West),12
1424,6044,27-Westgarth St/High St (Northcote),86
1425,6045,26-Walker St/High St (Northcote),86
1426,6046,25-Clifton Hill Interchange/Queens Pde (Clifton Hill),86
1427,6047,24-Michael St/Queens Pde (Clifton Hill),86
1428,6048,23-Wellington St/Queens Pde (Clifton Hill),86
1429,6049,22-Smith St/Queens Pde (Clifton Hill),86
1430,6050,21-Alexandra Pde/Smith St (Fitzroy),86
1431,6051,20-Rose St/Smith St (Collingwood),86
1432,6052,19-Johnston St/Smith St (Fitzroy),86
1433,6053,18-Hodgson St/Smith St (Fitzroy),86
1434,6054,17-Charles St/Smith St (Fitzroy),86
1435,6056,15-Smith St/Gertrude St (Fitzroy),86
1436,6057,14-Napier St/Gertrude St (Fitzroy),86
1437,6058,13-Brunswick St/Gertrude St (Fitzroy),86
1438,6059,12-Moor St/Nicholson St (Fitzroy),96
1439,6061,13-Johnston St/Nicholson St (Fitzroy),96
1440,6062,14-Rose St/Nicholson St (Fitzroy),96
1441,6063,15-Alexandra Pde/Nicholson St (Fitzroy North),96
1442,6064,16-Freeman St/Nicholson St (Fitzroy North),96
1443,6066,17-Reid St/Nicholson St (Fitzroy North),96
1444,6067,18-Scotchmer St/Nicholson St (Fitzroy North),96
1445,6068,19-Holden St/Nicholson St (Fitzroy North),96
1446,6069,20-Miller St/Nicholson St (Fitzroy North),96
1447,6070,21-Glenlyon Rd/Nicholson St (Fitzroy North),96
1448,6071,22-Albert St/Nicholson St (Brunswick East),96
1449,6103,42-Dundas St/Plenty Rd (Preston),86
1450,6104,41-Collins St/High St (Thornbury),86
1451,6105,40-Mansfield St/High St (Thornbury),86
1452,6106,39-Gooch St/High St (Thornbury),86
1453,6107,38-Clarendon St/High St (Thornbury),86
1454,6108,37-Woolton Ave/High St (Thornbury),86
1455,6109,36-Darebin Rd/High St (Thornbury),86
1456,6110,35-Dennis St/High St (Northcote),86
1457,6111,34-McCutcheon St/High St (Northcote),86
1458,6112,33-Separation St/High St (Northcote),86
1459,6113,32-Mitchell St/High St (Northcote),86
1460,6114,31-Northcote Town Hall/High St (Northcote),86
1461,6115,30-Clarke St/High St (Northcote),86
1462,6118,27-Westgarth St/High St (Northcote),86
1463,6119,26-Walker St/High St (Northcote),86
1464,6120,25-Clifton Hill Interchange/Queens Pde (Clifton Hill),86
1465,6121,24-Gold St/Queens Pde (Fitzroy North),86
1466,6122,23-Wellington St/Queens Pde (Clifton Hill),86
1467,6123,22-Smith St/Queens Pde (Clifton Hill),86
1468,6124,21-Alexandra Pde/Smith St (Clifton Hill),86
1469,6125,20-Keele St/Smith St (Fitzroy),86
1470,6126,19-Johnston St/Smith St (Fitzroy),86
1471,6127,18-Hodgson St/Smith St (Fitzroy),86
1472,6128,17-Charles St/Smith St (Fitzroy),86
1473,6129,16-Peel St/Smith St (Collingwood),86
1474,6130,15-Gertrude St/Smith St (Fitzroy),86
1475,6131,14-Napier St/Gertrude St (Fitzroy),86
1476,6132,13-Brunswick St/Gertrude St (Fitzroy),86
1477,6133,12-Moor St/Nicholson St (Fitzroy),96
1478,6135,13-Johnston St/Nicholson St (Carlton),96
1479,6136,14-Rose St/Nicholson St (Carlton),96
1480,6137,15-Alexandra Pde/Nicholson St (Carlton),96
1481,6138,16-Freeman St/Nicholson St (Fitzroy North),96
1482,6140,17-Reid St/Nicholson St (Carlton North),96
1483,6141,18-Scotchmer St/Nicholson St (Carlton North),96
1484,6142,19-Brunswick Rd/Nicholson St (Fitzroy),96
1485,6143,20-Miller St/Nicholson St (Brunswick East),96
1486,6144,21-Glenlyon Rd/Nicholson St (Brunswick East),96
1487,6145,22-Albert St/Nicholson St (Brunswick East),96
1488,6147,23-Blyth St/Nicholson St (Brunswick East),96
1489,7354,48-Dixon St/Wattletree Rd (Malvern),5
1490,8345,47-Cabrini Hospital/Wattletree Rd (Malvern),5
1491,9156,46-Soudan St/Wattletree Rd (Malvern),5
1492,940,43-Egerton Rd/Wattletree Rd (Armadale),5
1493,946,44-Duncraig Ave/Wattletree Rd (Armadale),5
1494,947,45-Glenferrie Rd/Wattletree Rd (Malvern),5
1495,950,46-Nicholls St/Wattletree Rd (Malvern),5
1496,955,47-Cabrini Hospital/Wattletree Rd (Malvern),5
1497,968,48-Dixon St/Wattletree Rd (Malvern),5
1498,980,49-Tooronga Rd/Wattletree Rd (Malvern East),5
1499,992,41-Maribyrnong Park/Maribyrnong Rd (Ascot Vale),"82,57"
1500,4138,140-Fraser St/Park St (St Kilda West),12
1501,4139,139-Langridge St/Patterson St (Middle Park),12
1502,4140,138-Armstrong St/Danks St (Middle Park),12
1503,4141,13-Gertrude St/Brunswick St (Fitzroy),11
1504,4142,14-Hanover St/Brunswick St (Fitzroy),11
1505,4143,15-Bell St/Brunswick St (Fitzroy),11
1506,4144,16-Johnston St/Brunswick St (Fitzroy),11
1507,4145,17-Leicester St/Brunswick St (Fitzroy),11
1508,4146,18-Alexandra Pde/Brunswick St (Fitzroy),11
1509,4147,19-Newry St/Brunswick St (Fitzroy North),11
1510,4148,20-Fitzroy Bowls Club/Brunswick St (Fitzroy North),11
1511,4149,21-Alfred Cres/St Georges Rd (Fitzroy North),11
1512,4150,22-Scotchmer St/St Georges Rd (Fitzroy North),11
1513,4151,23-Park St/St Georges Rd (Fitzroy North),11
1514,4152,24-Holden St/St Georges Rd (Fitzroy North),11
1515,4153,25-Miller St/St Georges Rd (Fitzroy North),11
1516,4154,26-Clarke St/St Georges Rd (Northcote),11
1517,4155,27-Westbourne Gr/St Georges Rd (Northcote),11
1518,4156,28-Sumner Ave/St Georges Rd (Northcote),11
1519,4157,29-Arthurton Rd/St Georges Rd (Northcote),11
1520,4158,30-Gladstone Ave/St Georges Rd (Northcote),11
1521,4159,31-Bird Ave/St Georges Rd (Northcote),11
1522,4160,32-Normanby Ave/St Georges Rd (Thornbury),11
1523,4161,33-Hutton St/St Georges Rd (Thornbury),11
1524,4162,34-Miller St/St Georges Rd (Preston),11
1525,4163,36-Bracken Ave/Miller St (Thornbury),11
1526,4164,37-Miller St/Gilbert Rd (Preston),11
1527,4165,38-Oakover Rd/Gilbert Rd (Preston),11
1528,4166,39-Latona Ave/Gilbert Rd (Preston),11
1529,4167,40-Bell St/Gilbert Rd (Preston),11
1530,4168,41-Bruce St/Gilbert Rd (Preston),11
1531,4169,42-Cramer St/Gilbert Rd (Preston),11
1532,4170,43-Murray Rd/Gilbert Rd (Preston),11
1533,4171,44-Cooper St/Gilbert Rd (Preston),11
1534,4172,45-Jacka St/Gilbert Rd (Preston),11
1535,4173,46-McNamara St/Gilbert Rd (Preston),11
1536,4174,71-RMIT/Plenty Rd (Bundoora),86
1537,4175,70-Clements Dr/Plenty Rd (Bundoora),86
1538,4176,69-Taunton Dr/Plenty Rd (Bundoora),86
1539,4177,68-Greenhills Rd/Plenty Rd (Bundoora),86
1540,4178,67-Bundoora Square SC/Plenty Rd (Bundoora),86
1541,4179,66-Settlement Rd/Plenty Rd (Bundoora),86
1542,4180,65-Grimshaw St/Plenty Rd (Bundoora),86
1543,4181,64-Mount Cooper Dr/Plenty Rd (Bundoora),86
1544,4182,63-Greenwood Dr/Plenty Rd (Bundoora),86
1545,4183,62-Metropolitan Fire Brigade/Plenty Rd (Bundoora),86
1546,4185,61-Bundoora Park/Plenty Rd (Bundoora),86
1547,4186,60-La Trobe University/Plenty Rd (Bundoora),86
1548,4187,59-Preston Cemetery/Plenty Rd (Kingsbury),86
1549,4188,58-Browning St/Plenty Rd (Kingsbury),86
1550,4189,57-Reservoir District Secondary College/Plenty Rd (Reservoir),86
1551,4190,56-Loddon Ave/Plenty Rd (Reservoir),86
1552,4191,55-Boldrewood Pde/Plenty Rd (Reservoir),86
1553,4192,54-Wilkinson St/Plenty Rd (Reservoir),86
1554,4193,53-Ethel Gr/Plenty Rd (Reservoir),86
1555,4195,51-Wood St/Plenty Rd (Preston),86
1556,4196,50-Sylvester Gr/Plenty Rd (Preston),86
1557,4197,49-Murray Rd/Plenty Rd (Preston),86
1558,4198,48-Gower St/Plenty Rd (Preston),86
1559,4199,47-David St/Plenty Rd (Preston),86
1560,4201,45-Bell St/Plenty Rd (Preston),86
1561,4202,44-Seymour St/Plenty Rd (Preston),86
1562,4203,43-Raglan St/Plenty Rd (Preston),86
1563,4204,42-Miller St/High St (Thornbury),86
1564,4205,41-Blythe St/High St (Thornbury),86
1565,4206,40-Mansfield St/High St (Thornbury),86
1566,4323,127-York St/Clarendon St (South Melbourne),12
1567,4324,126-City Rd/Clarendon St (South Melbourne),12
1568,4331,128-Dorcas St/Clarendon St (South Melbourne),12
1569,4332,129-Park St/Clarendon St (South Melbourne),12
1570,4333,130-Albert Rd/Clarendon St (South Melbourne),12
1571,4334,131-Melbourne Sports & Aquatic Centre/Albert Rd (Albert Park),12
1572,43472,D14-Southern Cross Station/Collins St (Docklands),"48,11"
1573,43473,D15-Batman's Hill/Collins St (Docklands),"48,11"
1574,43474,D17-Merchant St/Collins St (Docklands),"48,11"
1575,43475,D16-Harbour Esp/Collins St (Docklands),"48,11"
1576,43476,D15-Batman's Hill/Collins St (Docklands),"48,11"
1577,43477,D14-Southern Cross Station/Collins St (Docklands),"48,11"
1578,43480,D16-Harbour Esp/Collins St (Docklands),"48,11"
1579,4384,132-Canterbury Rd/Albert Rd (Albert Park),12
1580,4440,133-Canterbury Rd/Mills St (Middle Park),12
1581,4441,134-Carter St/Mills St (Middle Park),12
1582,4442,135-Richardson St/Mills St (Middle Park),12
1583,4443,136-Danks St/Mills St (Middle Park),12
1584,4444,137-Harold St/Danks St (Middle Park),12
1585,4445,142-Mary St/Park St (St Kilda West),12
1586,4446,141-Cowderoy St/Park St (St Kilda West),12
1587,4447,140-Fraser St/Patterson St (Middle Park),12
1588,4448,139-Langridge St/Patterson St (Middle Park),12
1589,4449,138-Armstrong St/Danks St (Middle Park),12
1590,4450,13-Gertrude St/Brunswick St (Fitzroy),11
1591,4451,14-King William St/Brunswick St (Fitzroy),11
1592,4452,15-St David St/Brunswick St (Fitzroy),11
1593,4453,16-Johnston St/Brunswick St (Fitzroy),11
1594,4454,17-Leicester St/Brunswick St (Fitzroy),11
1595,4455,18-Alexandra Pde/Brunswick St (Fitzroy North),11
1596,4456,19-Newry St/Brunswick St (Fitzroy North),11
1597,4457,20-Fitzroy Bowls Club/Brunswick St (Fitzroy North),11
1598,4458,21-Alfred Cres/St Georges Rd (Fitzroy North),11
1599,4460,23-Park St/St Georges Rd (Fitzroy North),11
1600,4461,24-Holden St/St Georges Rd (Fitzroy North),11
1601,4462,25-Miller St/St Georges Rd (Fitzroy North),11
1602,4463,26-Clarke St/St Georges Rd (Northcote),11
1603,4464,27-Westbourne Gr/St Georges Rd (Northcote),11
1604,4465,28-Sumner Ave/St Georges Rd (Northcote),11
1605,4466,29-Arthurton Rd/St Georges Rd (Northcote),11
1606,4468,30-Gladstone Ave/St Georges Rd (Northcote),11
1607,4469,31-Gadd St/St Georges Rd (Northcote),11
1608,4470,32-Normanby Ave/St Georges Rd (Thornbury),11
1609,4471,33-Hutton St/St Georges Rd (Thornbury),11
1610,4472,34-Miller St/St Georges Rd (Preston),11
1611,4473,36-Devon St/Miller St (Preston),11
1612,4474,35-St Georges Rd/Miller St (Preston),11
1613,4475,37-Miller St/Gilbert Rd (Preston),11
1614,4476,38-Oakover Rd/Gilbert Rd (Preston),11
1615,4477,39-Latona Ave/Gilbert Rd (Preston),11
1616,4478,40-Bell St/Gilbert Rd (Preston),11
1617,4479,41-Bruce St/Gilbert Rd (Preston),11
1618,4480,42-Cramer St/Gilbert Rd (Preston),11
1619,4481,43-Murray Rd/Gilbert Rd (Preston),11
1620,4482,44-Cooper St/Gilbert Rd (Preston),11
1621,4483,45-Jacka St/Gilbert Rd (Preston),11
1622,4484,47-West Preston/Gilbert Rd (Preston),11
1623,4485,70-Janefield Dr/Plenty Rd (Bundoora),86
1624,4486,69-Taunton Dr/Plenty Rd (Bundoora),86
1625,4487,68-Greenhills Rd/Plenty Rd (Bundoora),86
1626,4488,67-Bundoora Square SC/Plenty Rd (Bundoora),86
1627,4489,66-Settlement Rd/Plenty Rd (Bundoora),86
1628,4490,65-Grimshaw St/Plenty Rd (Bundoora),86
1629,4491,64-Mount Cooper Dr/Plenty Rd (Bundoora),86
1630,4492,63-Greenwood Dr/Plenty Rd (Bundoora),86
1631,4493,62-Metropolitan Fire Brigade/Plenty Rd (Bundoora),86
1632,4494,61-Bundoora Park/Plenty Rd (Bundoora),86
1633,4495,60-La Trobe University/Plenty Rd (Bundoora),86
1634,4496,59-Preston Cemetery/Plenty Rd (Kingsbury),86
1635,4497,58-Browning St/Plenty Rd (Kingsbury),86
1636,4498,57-Reservoir District Secondary College/Plenty Rd (Reservoir),86
1637,4499,56-Loddon Ave/Plenty Rd (Reservoir),86
1638,4500,55-Albert St/Plenty Rd (Reservoir),86
1639,4501,54-Wilkinson St/Plenty Rd (Reservoir),86
1640,4502,53-Ethel Gr/Plenty Rd (Reservoir),86
1641,4503,52-Tyler St/Plenty Rd (Preston),86
1642,4504,51-Wood St/Plenty Rd (Preston),86
1643,4505,50-Sylvester Gr/Plenty Rd (Preston),86
1644,4506,49-Murray Rd/Plenty Rd (Preston),86
1645,4507,48-Gower St/Plenty Rd (Preston),86
1646,4508,47-David St/Plenty Rd (Preston),86
1647,4510,45-Bell St/Plenty Rd (Preston),86
1648,4511,44-Osborne Gr/Plenty Rd (Preston),86
1649,4512,43-Raglan St/Plenty Rd (Preston),86
1650,46517,48-Hawthorn Rd/Dandenong Rd (Caulfield North),64
1651,47493,D18-Bourke St/Collins St (Docklands),"48,11"
1652,4945,43-Van Ness Ave/Raleigh Rd (Maribyrnong),"82,57"
1653,49999,22-Toorak Rd/St Kilda Rd (Melbourne City),58
1654,52112,123-Fawkner Park/Toorak Rd (South Yarra),58
1655,52113,123-Fawkner Park/Toorak Rd (South Yarra),58
1656,6032,39-Ballantyne St/High St (Thornbury),86
1657,6034,37-Woolton Ave/High St (Thornbury),86
1658,6035,36-Darebin Rd/High St (Thornbury),86
1659,6036,35-Dennis St/High St (Northcote),86
1660,6037,34-Bent St/High St (Northcote),86
1661,6038,33-Arthurton Rd/High St (Northcote),86
1662,6039,32-Mitchell St/High St (Northcote),86
1663,6040,31-Northcote Town Hall/High St (Northcote),86
1664,6041,30-Clarke St/High St (Northcote),86
